[
  {
    "name": "Lhong Chiang Dao Glamping",
    "location": "Chiang Dao",
    "address": "Chiang Dao, Chiang Mai",
    "city": "เชียงดาว",
    "province": "เชียงใหม่",
    "latitude": 19.300,
    "longitude": 98.945,
    "price_thb": 2600,
    "facilities": ["เต็นท์หรู", "ร้านอาหาร", "บาร์"],
    "google_maps": "https://www.google.com/maps/search/?api=1&query=19.300,98.945&query_place_id=Lhong%20Chiang%20Dao%20Glamping",
    "type": "โรงแรม"
  },
  {
    "name": "Yatika Boutique Chiang Dao",
    "location": "Chiang Dao",
    "address": "Chiang Dao, Chiang Mai",
    "city": "เชียงดาว",
    "province": "เชียงใหม่",
    "latitude": 19.297,
    "longitude": 98.940,
    "price_thb": 7200,
    "facilities": ["สระว่ายน้ำ", "ฟิตเนส", "สวน"],
    "google_maps": "https://www.google.com/maps/search/?api=1&query=19.297,98.940&query_place_id=Yatika%20Boutique%20Chiang%20Dao",
    "type": "โรงแรม"
  },
  {
    "name": "The View Chiang Dao",
    "location": "Chiang Dao",
    "address": "Chiang Dao, Chiang Mai",
    "city": "เชียงดาว",
    "province": "เชียงใหม่",
    "latitude": 19.295,
    "longitude": 98.942,
    "price_thb": 1300,
    "facilities": ["ฟิตเนส", "สวน", "Wi‑Fi ฟรี"],
    "google_maps": "https://www.google.com/maps/search/?api=1&query=19.295,98.942&query_place_id=The%20View%20Chiang%20Dao",
    "type": "โรงแรม"
  },
  {
    "name": "Chiangdaoplace Hotel",
    "location": "Chiang Dao",
    "address": "Chiang Dao, Chiang Mai",
    "city": "เชียงดาว",
    "province": "เชียงใหม่",
    "latitude": 19.300,
    "longitude": 98.943,
    "price_thb": 600,
    "facilities": ["สวน", "ที่จอดรถ", "ลานระเบียง"],
    "google_maps": "https://www.google.com/maps/search/?api=1&query=19.300,98.943&query_place_id=Chiangdaoplace%20Hotel",
    "type": "โรงแรม"
  },
  {
    "name": "Chiang Dao Hostel",
    "location": "Chiang Dao",
    "address": "Chiang Dao, Chiang Mai",
    "city": "เชียงดาว",
    "province": "เชียงใหม่",
    "latitude": 19.301,
    "longitude": 98.944,
    "price_thb": 450,
    "facilities": ["ห้องรวม", "สวน", "Wi‑Fi ฟรี"],
    "google_maps": "https://www.google.com/maps/search/?api=1&query=19.301,98.944&query_place_id=Chiang%20Dao%20Hostel",
    "type": "โรงแรม"
  },
  {
    "name": "Doo‑Dao‑Doi Farm & Stay",
    "location": "Chiang Dao",
    "address": "Chiang Dao, Chiang Mai",
    "city": "เชียงดาว",
    "province": "เชียงใหม่",
    "latitude": 19.298,
    "longitude": 98.946,
    "price_thb": 500,
    "facilities": ["ฟาร์ม", "สวน", "ห้องพัก"],
    "google_maps": "https://www.google.com/maps/search/?api=1&query=19.298,98.946&query_place_id=Doo‑Dao‑Doi%20Farm%20&%20Stay",
    "type": "โรงแรม"
  },
  {
    "name": "Buraphat Resort",
    "location": "Chiang Dao",
    "address": "Chiang Dao, Chiang Mai",
    "city": "เชียงดาว",
    "province": "เชียงใหม่",
    "latitude": 19.294,
    "longitude": 98.941,
    "price_thb": 2400,
    "facilities": ["สระว่ายน้ำ", "สวน", "ที่จอดรถ"],
    "google_maps": "https://www.google.com/maps/search/?api=1&query=19.294,98.941&query_place_id=Buraphat%20Resort",
    "type": "โรงแรม"
  },
  {
    "name": "Huan Chiang Dao Resort",
    "location": "Chiang Dao",
    "address": "Chiang Dao, Chiang Mai",
    "city": "เชียงดาว",
    "province": "เชียงใหม่",
    "latitude": 19.296,
    "longitude": 98.947,
    "price_thb": 650,
    "facilities": ["สระว่ายน้ำ", "ร้านอาหาร", "Wi‑Fi ฟรี"],
    "google_maps": "https://www.google.com/maps/search/?api=1&query=19.296,98.947&query_place_id=Huan%20Chiang%20Dao%20Resort",
    "type": "โรงแรม"
  },
  {
    "name": "Azalea Village",
    "location": "Chiang Dao",
    "address": "Chiang Dao, Chiang Mai",
    "city": "เชียงดาว",
    "province": "เชียงใหม่",
    "latitude": 19.293,
    "longitude": 98.948,
    "price_thb": 1360,
    "facilities": ["สวน", "จักรยานฟรี", "Wi‑Fi ฟรี"],
    "google_maps": "https://www.google.com/maps/search/?api=1&query=19.293,98.948&query_place_id=Azalea%20Village",
    "type": "โรงแรม"
  },
  {
    "name": "Chiang Dao Hut Resort",
    "location": "Chiang Dao",
    "address": "Chiang Dao, Chiang Mai",
    "city": "เชียงดาว",
    "province": "เชียงใหม่",
    "latitude": 19.292,
    "longitude": 98.949,
    "price_thb": 600,
    "facilities": ["รถรับส่งสนามบิน", "สวน", "Wi‑Fi ฟรี"],
    "google_maps": "https://www.google.com/maps/search/?api=1&query=19.292,98.949&query_place_id=Chiang%20Dao%20Hut%20Resort",
    "type": "โรงแรม"
  },
  {
    "name": "Aurora Resort Chiang Dao",
    "location": "Chiang Dao",
    "address": "Chiang Dao, Chiang Mai",
    "city": "เชียงดาว",
    "province": "เชียงใหม่",
    "latitude": 19.291,
    "longitude": 98.950,
    "price_thb": 1200,
    "facilities": ["สระว่ายน้ำ", "จักรยาน", "Wi‑Fi ฟรี"],
    "google_maps": "https://www.google.com/maps/search/?api=1&query=19.291,98.950&query_place_id=Aurora%20Resort%20Chiang%20Dao",
    "type": "โรงแรม"
  },
  {
    "name": "Paradise Resort & Cafe",
    "location": "Chiang Dao",
    "address": "Chiang Dao, Chiang Mai",
    "city": "เชียงดาว",
    "province": "เชียงใหม่",
    "latitude": 19.290,
    "longitude": 98.951,
    "price_thb": 1400,
    "facilities": ["ร้านอาหาร", "สวน", "Wi‑Fi ฟรี"],
    "google_maps": "https://www.google.com/maps/search/?api=1&query=19.290,98.951&query_place_id=Paradise%20Resort%20&%20Cafe",
    "type": "โรงแรม"
  },
  {
    "name": "Nokkamin Home Chiang Dao",
    "location": "Chiang Dao",
    "address": "Chiang Dao, Chiang Mai",
    "city": "เชียงดาว",
    "province": "เชียงใหม่",
    "latitude": 19.289,
    "longitude": 98.952,
    "price_thb": 500,
    "facilities": ["ห้องไม้", "Wi‑Fi ฟรี", "สวน"],
    "google_maps": "https://www.google.com/maps/search/?api=1&query=19.289,98.952&query_place_id=Nokkamin%20Home%20Chiang%20Dao",
    "type": "โรงแรม"
  },
  {
    "name": "Marisa Resort & Spa Chiang Dao",
    "location": "Chiang Dao",
    "address": "Chiang Dao, Chiang Mai",
    "city": "เชียงดาว",
    "province": "เชียงใหม่",
    "latitude": 19.288,
    "longitude": 98.953,
    "price_thb": 1320,
    "facilities": ["สปา", "สระว่ายน้ำ", "Wi‑Fi ฟรี"],
    "google_maps": "https://www.google.com/maps/search/?api=1&query=19.288,98.953&query_place_id=Marisa%20Resort%20&%20Spa%20Chiang%20Dao",
    "type": "โรงแรม"
  },
  {
    "name": "Chiang Dao Nest",
    "location": "Chiang Dao",
    "address": "Chiang Dao, Chiang Mai",
    "city": "เชียงดาว",
    "province": "เชียงใหม่",
    "latitude": 19.287,
    "longitude": 98.954,
    "price_thb": 1100,
    "facilities": ["ร้านอาหาร", "สวน", "Wi‑Fi ฟรี"],
    "google_maps": "https://www.google.com/maps/search/?api=1&query=19.287,98.954&query_place_id=Chiang%20Dao%20Nest",
    "type": "โรงแรม"
  },
  {
    "name": "Chiang Dao Nest 2",
    "location": "Chiang Dao",
    "address": "Chiang Dao, Chiang Mai",
    "city": "เชียงดาว",
    "province": "เชียงใหม่",
    "latitude": 19.286,
    "longitude": 98.955,
    "price_thb": 1000,
    "facilities": ["สวน", "Wi‑Fi ฟรี"],
    "google_maps": "https://www.google.com/maps/search/?api=1&query=19.286,98.955&query_place_id=Chiang%20Dao%20Nest%202",
    "type": "โรงแรม"
  },
  {
    "name": "Chiang Dao Privacy Resort",
    "location": "Chiang Dao",
    "address": "Chiang Dao, Chiang Mai",
    "city": "เชียงดาว",
    "province": "เชียงใหม่",
    "latitude": 19.285,
    "longitude": 98.956,
    "price_thb": 1500,
    "facilities": ["ที่จอดรถฟรี", "สวน", "Wi‑Fi ฟรี"],
    "google_maps": "https://www.google.com/maps/search/?api=1&query=19.285,98.956&query_place_id=Chiang%20Dao%20Privacy%20Resort",
    "type": "โรงแรม"
  },
  {
    "name": "Mist Villa",
    "location": "Chiang Dao",
    "address": "Chiang Dao, Chiang Mai",
    "city": "เชียงดาว",
    "province": "เชียงใหม่",
    "latitude": 19.284,
    "longitude": 98.957,
    "price_thb": 4000,
    "facilities": ["วิวเขา", "สปา", "สวน"],
    "google_maps": "https://www.google.com/maps/search/?api=1&query=19.284,98.957&query_place_id=Mist%20Villa",
    "type": "โรงแรม"
  },
  {
    "name": "The Campian",
    "location": "Chiang Dao",
    "address": "Chiang Dao, Chiang Mai",
    "city": "เชียงดาว",
    "province": "เชียงใหม่",
    "latitude": 19.283,
    "longitude": 98.958,
    "price_thb": 4200,
    "facilities": ["ลานกางเต็นท์", "สวน", "Wi‑Fi ฟรี"],
    "google_maps": "https://www.google.com/maps/search/?api=1&query=19.283,98.958&query_place_id=The%20Campian",
    "type": "โรงแรม"
  },
  {
    "name": "Chiang Dao Good View Resort & Spa",
    "location": "Chiang Dao",
    "address": "Chiang Dao, Chiang Mai",
    "city": "เชียงดาว",
    "province": "เชียงใหม่",
    "latitude": 19.282,
    "longitude": 98.959,
    "price_thb": 2000,
    "facilities": ["สปา", "สวน", "ที่จอดรถ"],
    "google_maps": "https://www.google.com/maps/search/?api=1&query=19.282,98.959&query_place_id=Chiang%20Dao%20Good%20View%20Resort%20&%20Spa",
    "type": "โรงแรม"
  }
]