[
  {
    "name": "Doi Inthanon View Resort",
    "location": "Saijomthong-Doi Inthanon Rd, Chom Thong",
    "address": "93 M.10 Saijomthong-Doi Inthanon Rd. KM.7, Baan Luang, Chom Thong, Chiang Mai",
    "city": "จอมทอง",
    "province": "เชียงใหม่",
    "latitude": 18.587,
    "longitude": 98.488,
    "price_thb": 1500,
    "facilities": ["ร้านอาหาร", "จักรยานฟรี", "ลานระเบียง"],
    "google_maps": "https://www.google.com/maps/search/?api=1&query=18.587,98.488&query_place_id=Doi%20Inthanon%20View%20Resort",
    "type": "โรงแรม"
  },
  {
    "name": "Little Home Inthanon Resort",
    "location": "Chom Thong",
    "address": "ใกล้ด่านอุทยานแห่งชาติดอยอินทนนท์",
    "city": "จอมทอง",
    "province": "เชียงใหม่",
    "latitude": 18.588,
    "longitude": 98.490,
    "price_thb": 1200,
    "facilities": ["Wi‑Fi ฟรี", "ที่จอดรถ", "กาต้มน้ำ"],
    "google_maps": "https://www.google.com/maps/search/?api=1&query=18.588,98.490&query_place_id=Little%20Home%20Inthanon%20Resort",
    "type": "โรงแรม"
  },
  {
    "name": "Ban Suan Inthanon Resort",
    "location": "Chom Thong",
    "address": "ใกล้วัดพระธาตุศรีจอมทอง",
    "city": "จอมทอง",
    "province": "เชียงใหม่",
    "latitude": 18.560,
    "longitude": 98.479,
    "price_thb": 716,
    "facilities": ["Wi‑Fi ฟรี", "ที่จอดรถ", "สวน"],
    "google_maps": "https://www.google.com/maps/search/?api=1&query=18.560,98.479&query_place_id=Ban%20Suan%20Inthanon%20Resort",
    "type": "โรงแรม"
  },
  {
    "name": "Suan Sook Homestay",
    "location": "Chom Thong",
    "address": "Chom Thong District, Chiang Mai",
    "city": "จอมทอง",
    "province": "เชียงใหม่",
    "latitude": 18.565,
    "longitude": 98.482,
    "price_thb": 2106,
    "facilities": ["Wi‑Fi ฟรี", "เตาปิคนิค", "สวน"],
    "google_maps": "https://www.google.com/maps/search/?api=1&query=18.565,98.482&query_place_id=Suan%20Sook%20Homestay",
    "type": "โรงแรม"
  },
  {
    "name": "Papa Home & Rabbit Café",
    "location": "Chom Thong",
    "address": "Chom Thong District, Chiang Mai",
    "city": "จอมทอง",
    "province": "เชียงใหม่",
    "latitude": 18.570,
    "longitude": 98.485,
    "price_thb": 1383,
    "facilities": ["Wi‑Fi ฟรี", "คาเฟ่", "สวน"],
    "google_maps": "https://www.google.com/maps/search/?api=1&query=18.570,98.485&query_place_id=Papa%20Home%20%26%20Rabbit%20Café",
    "type": "โรงแรม"
  },
  {
    "name": "Touch Star Resort Doi Inthanon",
    "location": "Chom Thong",
    "address": "Chom Thong District, Chiang Mai",
    "city": "จอมทอง",
    "province": "เชียงใหม่",
    "latitude": 18.572,
    "longitude": 98.488,
    "price_thb": 1179,
    "facilities": ["ฟรี Wi‑Fi", "สระว่ายน้ำ", "ร้านอาหาร"],
    "google_maps": "https://www.google.com/maps/search/?api=1&query=18.572,98.488&query_place_id=Touch%20Star%20Resort%20Doi%20Inthanon",
    "type": "โรงแรม"
  },
  {
    "name": "Bhupimarn Garden Home",
    "location": "Chom Thong",
    "address": "Chom Thong District, Chiang Mai",
    "city": "จอมทอง",
    "province": "เชียงใหม่",
    "latitude": 18.568,
    "longitude": 98.480,
    "price_thb": 1000,
    "facilities": ["สวน", "Wi‑Fi ฟรี", "ที่จอดรถ"],
    "google_maps": "https://www.google.com/maps/search/?api=1&query=18.568,98.480&query_place_id=Bhupimarn%20Garden%20Home",
    "type": "โรงแรม"
  },
  {
    "name": "Betel Chom Thong Resort",
    "location": "Chom Thong",
    "address": "Chom Thong District, Chiang Mai",
    "city": "จอมทอง",
    "province": "เชียงใหม่",
    "latitude": 18.575,
    "longitude": 98.482,
    "price_thb": 893,
    "facilities": ["Wi‑Fi ฟรี", "รูมเซอร์วิส", "ที่จอดรถ"],
    "google_maps": "https://www.google.com/maps/search/?api=1&query=18.575,98.482&query_place_id=Betel%20Chom%20Thong%20Resort",
    "type": "โรงแรม"
  },
  {
    "name": "Inthanon Highland Resort",
    "location": "Doi Inthanon NP",
    "address": "ใกล้ด่านอุทยานแห่งชาติ ดอยอินทนนท์",
    "city": "จอมทอง",
    "province": "เชียงใหม่",
    "latitude": 18.586,
    "longitude": 98.489,
    "price_thb": 2000,
    "facilities": ["สระว่ายน้ำ", "วิวภูเขา", "ที่จอดรถ"],
    "google_maps": "https://www.google.com/maps/search/?api=1&query=18.586,98.489&query_place_id=Inthanon%20Highland%20Resort",
    "type": "โรงแรม"
  },
  {
    "name": "Doi Inthanon Riverside Resort",
    "location": "Wiang Nong Long",
    "address": "58 Moo4, Nonglong, Chom Thong, Chiang Mai",
    "city": "จอมทอง",
    "province": "เชียงใหม่",
    "latitude": 18.600,
    "longitude": 98.470,
    "price_thb": 1800,
    "facilities": ["สระว่ายน้ำ", "ร้านอาหาร", "จักรยานฟรี"],
    "google_maps": "https://www.google.com/maps/search/?api=1&query=18.600,98.470&query_place_id=Doi%20Inthanon%20Riverside%20Resort",
    "type": "โรงแรม"
  },
  {
    "name": "3 Pok Resort Maewang",
    "location": "Maewang",
    "address": "ใกล้แม่วาง, จอมทอง",
    "city": "จอมทอง",
    "province": "เชียงใหม่",
    "latitude": 18.588,
    "longitude": 98.500,
    "price_thb": 3310,
    "facilities": ["Wi‑Fi ฟรี", "ช้าง", "วิว"],
    "google_maps": "https://www.google.com/maps/search/?api=1&query=18.588,98.500&query_place_id=3%20Pok%20Resort%20Maewang",
    "type": "โรงแรม"
  },
  {
    "name": "Camp Keelar",
    "location": "Chom Thong",
    "address": "Chom Thong District, Chiang Mai",
    "city": "จอมทอง",
    "province": "เชียงใหม่",
    "latitude": 18.590,
    "longitude": 98.492,
    "price_thb": 1200,
    "facilities": ["เต็นท์"],
    "google_maps": "https://www.google.com/maps/search/?api=1&query=18.590,98.492&query_place_id=Camp%20Keelar",
    "type": "โรงแรม"
  },
  {
    "name": "Nakchan Mina Resort",
    "location": "Chom Thong",
    "address": "Chom Thong District, Chiang Mai",
    "city": "จอมทอง",
    "province": "เชียงใหม่",
    "latitude": 18.567,
    "longitude": 98.487,
    "price_thb": 850,
    "facilities": ["สวน", "Wi‑Fi ฟรี"],
    "google_maps": "https://www.google.com/maps/search/?api=1&query=18.567,98.487&query_place_id=Nakchan%20Mina%20Resort",
    "type": "โรงแรม"
  },
  {
    "name": "Tawan Riverside Resort",
    "location": "Chom Thong",
    "address": "Chom Thong District, Chiang Mai",
    "city": "จอมทอง",
    "province": "เชียงใหม่",
    "latitude": 18.582,
    "longitude": 98.475,
    "price_thb": 1400,
    "facilities": ["ริมน้ำ", "Wi‑Fi ฟรี"],
    "google_maps": "https://www.google.com/maps/search/?api=1&query=18.582,98.475&query_place_id=Tawan%20Riverside%20Resort",
    "type": "โรงแรม"
  },
  {
    "name": "Mae Win Guest House & Resort",
    "location": "Chom Thong",
    "address": "Chom Thong District, Chiang Mai",
    "city": "จอมทอง",
    "province": "เชียงใหม่",
    "latitude": 18.585,
    "longitude": 98.480,
    "price_thb": 1200,
    "facilities": ["Wi‑Fi ฟรี", "ร้านอาหาร"],
    "google_maps": "https://www.google.com/maps/search/?api=1&query=18.585,98.480&query_place_id=Mae%20Win%20Guest%20House%20%26%20Resort",
    "type": "โรงแรม"
  },
  {
    "name": "Sai Nam Wang Resort",
    "location": "Chom Thong",
    "address": "Chom Thong District, Chiang Mai",
    "city": "จอมทอง",
    "province": "เชียงใหม่",
    "latitude": 18.589,
    "longitude": 98.486,
    "price_thb": 1500,
    "facilities": ["สวน", "วิว", "Wi‑Fi ฟรี"],
    "google_maps": "https://www.google.com/maps/search/?api=1&query=18.589,98.486&query_place_id=Sai%20Nam%20Wang%20Resort",
    "type": "โรงแรม"
  },
  {
    "name": "Inthanon Elephant Friends",
    "location": "Chom Thong",
    "address": "Chom Thong District, Chiang Mai",
    "city": "จอมทอง",
    "province": "เชียงใหม่",
    "latitude": 18.590,
    "longitude": 98.491,
    "price_thb": 2000,
    "facilities": ["ช้าง", "ทัวร์", "เครื่องดื่ม"],
    "google_maps": "https://www.google.com/maps/search/?api=1&query=18.590,98.491&query_place_id=Inthanon%20Elephant%20Friends",
    "type": "โรงแรม"
  },
  {
    "name": "Phu Pimarn Garden Resort",
    "location": "Chom Thong",
    "address": "Chom Thong District, Chiang Mai",
    "city": "จอมทอง",
    "province": "เชียงใหม่",
    "latitude": 18.568,
    "longitude": 98.483,
    "price_thb": 1200,
    "facilities": ["สวน", "Wi‑Fi ฟรี"],
    "google_maps": "https://www.google.com/maps/search/?api=1&query=18.568,98.483&query_place_id=Phu%20Pimarn%20Garden%20Resort",
    "type": "โรงแรม"
  },
  {
    "name": "Ratchaphruek 2007 Hotel",
    "location": "Chom Thong",
    "address": "Chom Thong District, Chiang Mai",
    "city": "จอมทอง",
    "province": "เชียงใหม่",
    "latitude": 18.565,
    "longitude": 98.470,
    "price_thb": 1200,
    "facilities": ["Wi‑Fi ฟรี", "ที่จอดรถ"],
    "google_maps": "https://www.google.com/maps/search/?api=1&query=18.565,98.470&query_place_id=Ratchaphruek%202007%20Hotel",
    "type": "โรงแรม"
  }
]