[
  {
    "name": "Fang Chiang Mai Hotel",
    "location": "Chang Khlan, Fang",
    "address": "48 Kampang Din Soi 1 Rd, Fang, Chiang Mai",
    "city": "ฝาง",
    "province": "เชียงใหม่",
    "latitude": 19.917,
    "longitude": 99.803,
    "price_thb": 1500,
    "facilities": ["ฟิตเนส", "สวน", "ร้านอาหาร", "ฟรี Wi‑Fi", "ที่จอดรถ"],
    "google_maps": "https://www.google.com/maps/search/?api=1&query=19.917,99.803&query_place_id=Fang%20Chiang%20Mai%20Hotel",
    "type": "โรงแรม"
  },
  {
    "name": "Sleeping Tree Hotel",
    "location": "Fang",
    "address": "ใจกลางฝาง",
    "city": "ฝาง",
    "province": "เชียงใหม่",
    "latitude": 19.918,
    "longitude": 99.807,
    "price_thb": 1200,
    "facilities": ["ฟรี Wi‑Fi", "ที่จอดรถ", "สปา/ซาลอน"],
    "google_maps": "https://www.google.com/maps/search/?api=1&query=19.918,99.807&query_place_id=Sleeping%20Tree%20Hotel",
    "type": "โรงแรม"
  },
  {
    "name": "Khunyuw Hotel",
    "location": "Fang",
    "address": "ใจกลางฝาง",
    "city": "ฝาง",
    "province": "เชียงใหม่",
    "latitude": 19.919,
    "longitude": 99.806,
    "price_thb": 800,
    "facilities": ["คิดส์คลับ", "ร้านอาหาร", "ฟรี Wi‑Fi", "ที่จอดรถ"],
    "google_maps": "https://www.google.com/maps/search/?api=1&query=19.919,99.806&query_place_id=Khunyuw%20Hotel",
    "type": "โรงแรม"
  },
  {
    "name": "Phumanee Lahu Home Hotel",
    "location": "Fang",
    "address": "ใจกลางฝาง",
    "city": "ฝาง",
    "province": "เชียงใหม่",
    "latitude": 19.916,
    "longitude": 99.804,
    "price_thb": 700,
    "facilities": ["ร้านกาแฟ", "ฟรี Wi‑Fi", "ที่จอดรถ"],
    "google_maps": "https://www.google.com/maps/search/?api=1&query=19.916,99.804&query_place_id=Phumanee%20Lahu%20Home%20Hotel",
    "type": "โรงแรม"
  },
  {
    "name": "Kasarin Court",
    "location": "Fang",
    "address": "ใจกลางฝาง",
    "city": "ฝาง",
    "province": "เชียงใหม่",
    "latitude": 19.920,
    "longitude": 99.805,
    "price_thb": 600,
    "facilities": ["ฟรี Wi‑Fi", "ที่จอดรถ"],
    "google_maps": "https://www.google.com/maps/search/?api=1&query=19.920,99.805&query_place_id=Kasarin%20Court",
    "type": "โรงแรม"
  },
  {
    "name": "Ton Fang Hotel",
    "location": "Fang",
    "address": "ใจกลางฝาง",
    "city": "ฝาง",
    "province": "เชียงใหม่",
    "latitude": 19.915,
    "longitude": 99.808,
    "price_thb": 800,
    "facilities": ["ที่จอดรถ", "ฟรี Wi‑Fi"],
    "google_maps": "https://www.google.com/maps/search/?api=1&query=19.915,99.808&query_place_id=Ton%20Fang%20Hotel",
    "type": "โรงแรม"
  },
  {
    "name": "Fang Villa Hotel",
    "location": "Fang",
    "address": "ใจกลางฝาง",
    "city": "ฝาง",
    "province": "เชียงใหม่",
    "latitude": 19.914,
    "longitude": 99.805,
    "price_thb": 700,
    "facilities": ["สัตว์เลี้ยงพักได้", "ฟรี Wi‑Fi", "ที่จอดรถ"],
    "google_maps": "https://www.google.com/maps/search/?api=1&query=19.914,99.805&query_place_id=Fang%20Villa%20Hotel",
    "type": "โรงแรม"
  },
  {
    "name": "Kanoktid Place",
    "location": "Fang",
    "address": "ใจกลางฝาง",
    "city": "ฝาง",
    "province": "เชียงใหม่",
    "latitude": 19.913,
    "longitude": 99.804,
    "price_thb": 650,
    "facilities": ["ฟรี Wi‑Fi", "ที่จอดรถ"],
    "google_maps": "https://www.google.com/maps/search/?api=1&query=19.913,99.804&query_place_id=Kanoktid%20Place",
    "type": "โรงแรม"
  },
  {
    "name": "BB&B Hotel",
    "location": "Fang",
    "address": "ใจกลางฝาง",
    "city": "ฝาง",
    "province": "เชียงใหม่",
    "latitude": 19.912,
    "longitude": 99.803,
    "price_thb": 700,
    "facilities": ["ที่จอดรถ", "ฟรี Wi‑Fi"],
    "google_maps": "https://www.google.com/maps/search/?api=1&query=19.912,99.803&query_place_id=BB%26B%20Hotel",
    "type": "โรงแรม"
  },
  {
    "name": "Ha Me Garden Homestay",
    "location": "Fang outskirts",
    "address": "Fang District, Chiang Mai",
    "city": "ฝาง",
    "province": "เชียงใหม่",
    "latitude": 19.930,
    "longitude": 99.820,
    "price_thb": 600,
    "facilities": ["สวน", "วิวทุ่งนา", "ฟรี Wi‑Fi"],
    "google_maps": "https://www.google.com/maps/search/?api=1&query=19.930,99.820&query_place_id=Ha%20Me%20Garden%20Homestay",
    "type": "โรงแรม"
  },
  {
    "name": "Gumbie House",
    "location": "Fang outskirts",
    "address": "ใกล้น้ำพุร้อนฝาง",
    "city": "ฝาง",
    "province": "เชียงใหม่",
    "latitude": 19.940,
    "longitude": 99.825,
    "price_thb": 900,
    "facilities": ["ร้านอาหาร", "ฟรีที่จอดรถ", "สวน"],
    "google_maps": "https://www.google.com/maps/search/?api=1&query=19.940,99.825&query_place_id=Gumbie%20House",
    "type": "โรงแรม"
  },
  {
    "name": "Viengkaew Resort",
    "location": "Fang outskirts",
    "address": "Fang District, Chiang Mai",
    "city": "ฝาง",
    "province": "เชียงใหม่",
    "latitude": 19.950,
    "longitude": 99.830,
    "price_thb": 2000,
    "facilities": ["สระว่ายน้ำ", "ร้านอาหาร", "สวน"],
    "google_maps": "https://www.google.com/maps/search/?api=1&query=19.950,99.830&query_place_id=Viengkaew%20Resort",
    "type": "โรงแรม"
  },
  {
    "name": "Tonfang Hotel",
    "location": "Fang",
    "address": "ใจกลางฝาง",
    "city": "ฝาง",
    "province": "เชียงใหม่",
    "latitude": 19.916,
    "longitude": 99.809,
    "price_thb": 750,
    "facilities": ["ที่จอดรถ", "ฟรี Wi‑Fi"],
    "google_maps": "https://www.google.com/maps/search/?api=1&query=19.916,99.809&query_place_id=Tonfang%20Hotel",
    "type": "โรงแรม"
  },
  {
    "name": "Angkhang Nature Resort",
    "location": "Doi Angkhang",
    "address": "Chiang Mai Agricultural Station 2, Fang",
    "city": "ฝาง",
    "province": "เชียงใหม่",
    "latitude": 19.883,
    "longitude": 99.041,
    "price_thb": 2500,
    "facilities": ["สปา", "สวน", "วิวภูเขา"],
    "google_maps": "https://www.google.com/maps/search/?api=1&query=19.883,99.041&query_place_id=Angkhang%20Nature%20Resort",
    "type": "โรงแรม"
  },
  {
    "name": "Ton Fang Riverside",
    "location": "Fang outskirts",
    "address": "Fang District, Chiang Mai",
    "city": "ฝาง",
    "province": "เชียงใหม่",
    "latitude": 19.935,
    "longitude": 99.815,
    "price_thb": 1200,
    "facilities": ["ริมน้ำ", "ที่จอดรถ", "ฟรี Wi‑Fi"],
    "google_maps": "https://www.google.com/maps/search/?api=1&query=19.935,99.815&query_place_id=Ton%20Fang%20Riverside",
    "type": "โรงแรม"
  },
  {
    "name": "Hug Fang Hotel",
    "location": "Fang",
    "address": "ใจกลางฝาง",
    "city": "ฝาง",
    "province": "เชียงใหม่",
    "latitude": 19.917,
    "longitude": 99.810,
    "price_thb": 800,
    "facilities": ["ฟรี Wi‑Fi", "ที่จอดรถ"],
    "google_maps": "https://www.google.com/maps/search/?api=1&query=19.917,99.810&query_place_id=Hug%20Fang%20Hotel",
    "type": "โรงแรม"
  },
  {
    "name": "Khunyuw Riverside",
    "location": "Fang outskirts",
    "address": "ใกล้แม่น้ำฝาง",
    "city": "ฝาง",
    "province": "เชียงใหม่",
    "latitude": 19.938,
    "longitude": 99.818,
    "price_thb": 1000,
    "facilities": ["ริมน้ำ", "สวน", "ฟรี Wi‑Fi"],
    "google_maps": "https://www.google.com/maps/search/?api=1&query=19.938,99.818&query_place_id=Khunyuw%20Riverside",
    "type": "โรงแรม"
  },
  {
    "name": "Kasarin Riverside",
    "location": "Fang outskirts",
    "address": "ใกล้แม่น้ำฝาง",
    "city": "ฝาง",
    "province": "เชียงใหม่",
    "latitude": 19.939,
    "longitude": 99.819,
    "price_thb": 1100,
    "facilities": ["สวน", "ริมน้ำ", "ฟรี Wi‑Fi"],
    "google_maps": "https://www.google.com/maps/search/?api=1&query=19.939,99.819&query_place_id=Kasarin%20Riverside",
    "type": "โรงแรม"
  },
  {
    "name": "Pothong Rimtung Hotel",
    "location": "Fang",
    "address": "Fang",
    "city": "ฝาง",
    "province": "เชียงใหม่",
    "latitude": 19.921,
    "longitude": 99.806,
    "price_thb": 700,
    "facilities": ["ฟรี Wi‑Fi", "ที่จอดรถ"],
    "google_maps": "https://www.google.com/maps/search/?api=1&query=19.921,99.806&query_place_id=Pothong%20Rimtung%20Hotel",
    "type": "โรงแรม"
  },
  {
    "name": "Huen San Fang Hotel",
    "location": "Fang",
    "address": "Fang",
    "city": "ฝาง",
    "province": "เชียงใหม่",
    "latitude": 19.922,
    "longitude": 99.807,
    "price_thb": 800,
    "facilities": ["ฟรี Wi‑Fi", "ที่จอดรถ"],
    "google_maps": "https://www.google.com/maps/search/?api=1&query=19.922,99.807&query_place_id=Huen%20San%20Fang%20Hotel",
    "type": "โรงแรม"
  }
]