[
  {
    "name": "Four Seasons Resort Chiang Mai",
    "location": "Mae Rim",
    "address": "Mae Rim District, Chiang Mai",
    "city": "แม่ริม",
    "province": "เชียงใหม่",
    "latitude": 18.915,
    "longitude": 98.997,
    "price_thb": 24700,
    "facilities": ["สระว่ายน้ำ", "สปา", "มินิบาร์", "ตู้นิรภัย"],
    "google_maps": "https://www.google.com/maps/search/?api=1&query=18.915,98.997&query_place_id=Four%20Seasons%20Resort%20Chiang%20Mai",
    "type": "โรงแรม"
  },
  {
    "name": "Onsen @ Mon Cham",
    "location": "Mae Rim",
    "address": "Mon Cham, Mae Rim District",
    "city": "แม่ริม",
    "province": "เชียงใหม่",
    "latitude": 18.955,
    "longitude": 99.120,
    "price_thb": 7823,
    "facilities": ["ออนเซ็น", "อาหารเช้า", "วิวภูเขา"],
    "google_maps": "https://www.google.com/maps/search/?api=1&query=18.955,99.120&query_place_id=Onsen%20@%20Mon%20Cham",
    "type": "โรงแรม"
  },
  {
    "name": "Phu Ob Fa Resort",
    "location": "Mae Rim",
    "address": "Mae Rim District, Chiang Mai",
    "city": "แม่ริม",
    "province": "เชียงใหม่",
    "latitude": 18.942,
    "longitude": 99.000,
    "price_thb": 1643,
    "facilities": ["บังกะโล", "Wi‑Fi ฟรี", "แอร์"],
    "google_maps": "https://www.google.com/maps/search/?api=1&query=18.942,99.000&query_place_id=Phu%20Ob%20Fa%20Resort",
    "type": "โรงแรม"
  },
  {
    "name": "Mae Na Gardens",
    "location": "Mae Rim",
    "address": "Mae Rim District, Chiang Mai",
    "city": "แม่ริม",
    "province": "เชียงใหม่",
    "latitude": 18.930,
    "longitude": 98.990,
    "price_thb": 2275,
    "facilities": ["สระว่ายน้ำกลางแจ้ง", "สวน", "Wi‑Fi ฟรี"],
    "google_maps": "https://www.google.com/maps/search/?api=1&query=18.930,98.990&query_place_id=Mae%20Na%20Gardens",
    "type": "โรงแรม"
  },
  {
    "name": "Sugantra Cascade Resort",
    "location": "Mae Rim",
    "address": "Mae Rim District, Chiang Mai",
    "city": "แม่ริม",
    "province": "เชียงใหม่",
    "latitude": 18.925,
    "longitude": 98.985,
    "price_thb": 3671,
    "facilities": ["สระว่ายน้ำ", "วิวตก", "สปา"],
    "google_maps": "https://www.google.com/maps/search/?api=1&query=18.925,98.985&query_place_id=Sugantra%20Cascade%20Resort",
    "type": "โรงแรม"
  },
  {
    "name": "Monoceros Resort",
    "location": "Mae Rim",
    "address": "Mae Rim District, Chiang Mai",
    "city": "แม่ริม",
    "province": "เชียงใหม่",
    "latitude": 18.920,
    "longitude": 98.980,
    "price_thb": 1976,
    "facilities": ["สระว่ายน้ำกลางแจ้ง", "ร้านอาหาร", "วิวสวน"],
    "google_maps": "https://www.google.com/maps/search/?api=1&query=18.920,98.980&query_place_id=Monoceros%20Resort",
    "type": "โรงแรม"
  },
  {
    "name": "Bantunglom Resort",
    "location": "Mae Rim",
    "address": "Mae Rim District, Chiang Mai",
    "city": "แม่ริม",
    "province": "เชียงใหม่",
    "latitude": 18.940,
    "longitude": 98.975,
    "price_thb": 1174,
    "facilities": ["จักรยานฟรี", "ที่จอดรถ", "ลานระเบียง"],
    "google_maps": "https://www.google.com/maps/search/?api=1&query=18.940,98.975&query_place_id=Bantunglom%20Resort",
    "type": "โรงแรม"
  },
  {
    "name": "Country Retreat",
    "location": "Mae Rim",
    "address": "Huai Sai, Mae Rim District",
    "city": "แม่ริม",
    "province": "เชียงใหม่",
    "latitude": 18.935,
    "longitude": 98.970,
    "price_thb": 1400,
    "facilities": ["บังกะโล", "สระว่ายน้ำกลางแจ้ง"],
    "google_maps": "https://www.google.com/maps/search/?api=1&query=18.935,98.970&query_place_id=Country%20Retreat",
    "type": "โรงแรม"
  },
  {
    "name": "Panviman Chiang Mai Spa Resort",
    "location": "Mae Rim",
    "address": "Mae Rim District, Chiang Mai",
    "city": "แม่ริม",
    "province": "เชียงใหม่",
    "latitude": 18.934,
    "longitude": 98.974,
    "price_thb": 4107,
    "facilities": ["สระว่ายน้ำกลางแจ้ง", "สปาหรู", "ร้านอาหาร"],
    "google_maps": "https://www.google.com/maps/search/?api=1&query=18.934,98.974&query_place_id=Panviman%20Chiang%20Mai%20Spa%20Resort",
    "type": "โรงแรม"
  },
  {
    "name": "U Maerim Chiangmai",
    "location": "Mae Rim",
    "address": "Mae Rim District, Chiang Mai",
    "city": "แม่ริม",
    "province": "เชียงใหม่",
    "latitude": 18.933,
    "longitude": 98.972,
    "price_thb": 8863,
    "facilities": ["สระว่ายน้ำกลางแจ้ง", "สวน", "ที่จอดรถ"],
    "google_maps": "https://www.google.com/maps/search/?api=1&query=18.933,98.972&query_place_id=U%20Maerim%20Chiangmai",
    "type": "โรงแรม"
  },
  {
    "name": "Phrae Ratana Eco Lodge",
    "location": "Mae Rim",
    "address": "Mae Rim District",
    "city": "แม่ริม",
    "province": "เชียงใหม่",
    "latitude": 18.932,
    "longitude": 98.971,
    "price_thb": 1200,
    "facilities": ["อีโค ลอดจ์", "สวน", "Wi‑Fi ฟรี"],
    "google_maps": "https://www.google.com/maps/search/?api=1&query=18.932,98.971&query_place_id=Phrae%20Ratana%20Eco%20Lodge",
    "type": "โรงแรม"
  },
  {
    "name": "Mae Win River Resort",
    "location": "Mae Rim",
    "address": "Mae Win, Mae Rim District",
    "city": "แม่ริม",
    "province": "เชียงใหม่",
    "latitude": 18.930,
    "longitude": 98.969,
    "price_thb": 1500,
    "facilities": ["ริมน้ำ", "สปา", "จักรยาน"],
    "google_maps": "https://www.google.com/maps/search/?api=1&query=18.930,98.969&query_place_id=Mae%20Win%20River%20Resort",
    "type": "โรงแรม"
  },
  {
    "name": "Mae Rim Country Home Resort",
    "location": "Mae Rim",
    "address": "Mae Rim District",
    "city": "แม่ริม",
    "province": "เชียงใหม่",
    "latitude": 18.927,
    "longitude": 98.973,
    "price_thb": 2000,
    "facilities": ["สปา", "สวน", "Wi‑Fi"],
    "google_maps": "https://www.google.com/maps/search/?api=1&query=18.927,98.973&query_place_id=Mae%20Rim%20Country%20Home%20Resort",
    "type": "โรงแรม"
  },
  {
    "name": "Sankamphaeng Lake View Resort",
    "location": "San Kamphaeng",
    "address": "San Kamphaeng District",
    "city": "สันกำแพง",
    "province": "เชียงใหม่",
    "latitude": 18.760,
    "longitude": 99.020,
    "price_thb": 1800,
    "facilities": ["สระว่ายน้ำ", "กิจกรรมจักรยาน"],
    "google_maps": "https://www.google.com/maps/search/?api=1&query=18.760,99.020&query_place_id=Sankamphaeng%20Lake%20View%20Resort",
    "type": "โรงแรม"
  },
  {
    "name": "Baanpong Lodge",
    "location": "San Kamphaeng",
    "address": "ใกล้ถ้ำเมืองออน",
    "city": "สันกำแพง",
    "province": "เชียงใหม่",
    "latitude": 18.730,
    "longitude": 99.030,
    "price_thb": 2200,
    "facilities": ["สระว่ายน้ำ", "ร้านอาหาร", "จักรยานฟรี", "Wi‑Fi"],
    "google_maps": "https://www.google.com/maps/search/?api=1&query=18.730,99.030&query_place_id=Baanpong%20Lodge",
    "type": "โรงแรม"
  },
  {
    "name": "The Vet Boutique Hotel",
    "location": "San Kamphaeng",
    "address": "San Kamphaeng District",
    "city": "สันกำแพง",
    "province": "เชียงใหม่",
    "latitude": 18.718,
    "longitude": 99.028,
    "price_thb": 1080,
    "facilities": ["ฟิตเนส", "สวน", "ลานเลานจ์", "ที่จอดรถ"],
    "google_maps": "https://www.google.com/maps/search/?api=1&query=18.718,99.028&query_place_id=The%20Vet%20Boutique%20Hotel",
    "type": "โรงแรม"
  },
  {
    "name": "Baanpingkan Wellness Resort",
    "location": "San Kamphaeng",
    "address": "San Kamphaeng District",
    "city": "สันกำแพง",
    "province": "เชียงใหม่",
    "latitude": 18.720,
    "longitude": 99.025,
    "price_thb": 1200,
    "facilities": ["สระว่ายน้ำ", "สวน", "ที่จอดรถ"],
    "google_maps": "https://www.google.com/maps/search/?api=1&query=18.720,99.025&query_place_id=Baanpingkan%20Wellness%20Resort",
    "type": "โรงแรม"
  },
  {
    "name": "Karina Resort Chiang Mai",
    "location": "San Kamphaeng",
    "address": "San Kamphaeng District",
    "city": "สันกำแพง",
    "province": "เชียงใหม่",
    "latitude": 18.722,
    "longitude": 99.022,
    "price_thb": 2000,
    "facilities": ["สระว่ายน้ำ", "คาเฟ่", "สวน"],
    "google_maps": "https://www.google.com/maps/search/?api=1&query=18.722,99.022&query_place_id=Karina%20Resort",
    "type": "โรงแรม"
  }
]