[
  {
    "name": "สวนสัตว์เชียงใหม่",
    "location": "สุเทพ",
    "address": "ถนนทางขึ้นดอยสุเทพ, ตำบลสุเทพ, อำเภอเมืองเชียงใหม่, จังหวัดเชียงใหม่",
    "city": "เมืองเชียงใหม่",
    "province": "เชียงใหม่",
    "latitude": 18.8031,
    "longitude": 98.9528,
    "activities": ["ชมสัตว์นานาชนิด", "ชมการแสดงสัตว์", "เยี่ยมชมหมีแพนด้า", "เที่ยวอควาเรียม"],
    "avg_time_spent": "3-4 ชั่วโมง",
    "suitable_for": ["ครอบครัว", "เด็ก", "นักท่องเที่ยวทั่วไป"],
    "avg_price_per_person": 150,
    "type": "ที่ท่องเที่ยว"
  },
  {
    "name": "เชียงใหม่ ไนท์ซาฟารี",
    "location": "แม่เหียะ",
    "address": "ตำบลแม่เหียะ, อำเภอเมืองเชียงใหม่, จังหวัดเชียงใหม่",
    "city": "เมืองเชียงใหม่",
    "province": "เชียงใหม่",
    "latitude": 18.7883,
    "longitude": 98.9833,
    "activities": ["นั่งรถรางชมสัตว์กลางคืน", "ชมการแสดงสัตว์", "เดินชมสวนสัตว์กลางคืน"],
    "avg_time_spent": "2-3 ชั่วโมง",
    "suitable_for": ["ครอบครัว", "นักท่องเที่ยวทั่วไป"],
    "avg_price_per_person": 200,
    "type": "ที่ท่องเที่ยว"
  },
  {
    "name": "วัดพระสิงห์วรมหาวิหาร",
    "location": "เมืองเก่า",
    "address": "ถนนราชดำเนิน, ตำบลพระสิงห์, อำเภอเมืองเชียงใหม่, จังหวัดเชียงใหม่",
    "city": "เมืองเชียงใหม่",
    "province": "เชียงใหม่",
    "latitude": 18.7872,
    "longitude": 98.9936,
    "activities": ["สักการะพระพุทธรูป", "ชมสถาปัตยกรรมล้านนา", "ถ่ายภาพ"],
    "avg_time_spent": "1-2 ชั่วโมง",
    "suitable_for": ["นักท่องเที่ยวทั่วไป", "ผู้สนใจวัฒนธรรม"],
    "avg_price_per_person": 0,
    "type": "ที่ท่องเที่ยว"
  },
  {
    "name": "วัดพันเตา",
    "location": "เมืองเก่า",
    "address": "ถนนราชดำเนิน, ตำบลพระสิงห์, อำเภอเมืองเชียงใหม่, จังหวัดเชียงใหม่",
    "city": "เมืองเชียงใหม่",
    "province": "เชียงใหม่",
    "latitude": 18.7889,
    "longitude": 98.9925,
    "activities": ["สักการะพระพุทธรูป", "ชมสถาปัตยกรรมล้านนา", "ถ่ายภาพ"],
    "avg_time_spent": "1 ชั่วโมง",
    "suitable_for": ["นักท่องเที่ยวทั่วไป", "ผู้สนใจวัฒนธรรม"],
    "avg_price_per_person": 0,
    "type": "ที่ท่องเที่ยว"
  },
  {
    "name": "ถนนคนเดินท่าแพ",
    "location": "เมืองเก่า",
    "address": "ถนนราชดำเนิน, ตำบลพระสิงห์, อำเภอเมืองเชียงใหม่, จังหวัดเชียงใหม่",
    "city": "เมืองเชียงใหม่",
    "province": "เชียงใหม่",
    "latitude": 18.7861,
    "longitude": 98.9931,
    "activities": ["ช้อปปิ้งของฝาก", "ชิมอาหารพื้นเมือง", "ชมการแสดงพื้นเมือง"],
    "avg_time_spent": "2-3 ชั่วโมง",
    "suitable_for": ["นักท่องเที่ยวทั่วไป", "นักช้อปปิ้ง", "ผู้สนใจวัฒนธรรม"],
    "avg_price_per_person": 100,
    "type": "ที่ท่องเที่ยว"
  },
  {
    "name": "วัดเจดีย์หลวงวรวิหาร",
    "location": "เมืองเก่า",
    "address": "ถนนเจดีย์หลวง, ตำบลพระสิงห์, อำเภอเมืองเชียงใหม่, จังหวัดเชียงใหม่",
    "city": "เมืองเชียงใหม่",
    "province": "เชียงใหม่",
    "latitude": 18.7875,
    "longitude": 98.9933,
    "activities": ["ชมเจดีย์หลวง", "สักการะพระพุทธรูป", "ถ่ายภาพ"],
    "avg_time_spent": "1-2 ชั่วโมง",
    "suitable_for": ["นักท่องเที่ยวทั่วไป", "ผู้สนใจวัฒนธรรม"],
    "avg_price_per_person": 0,
    "type": "ที่ท่องเที่ยว"
  },
  {
    "name": "พิพิธภัณฑ์ 3 มิติ อาร์ต อิน พาราไดซ์ เชียงใหม่",
    "location": "ช้างคลาน",
    "address": "ถนนช้างคลาน, ตำบลช้างคลาน, อำเภอเมืองเชียงใหม่, จังหวัดเชียงใหม่",
    "city": "เมืองเชียงใหม่",
    "province": "เชียงใหม่",
    "latitude": 18.7861,
    "longitude": 98.9931,
    "activities": ["ถ่ายภาพกับภาพวาด 3 มิติ", "ชมงานศิลปะ", "สนุกกับภาพลวงตา"],
    "avg_time_spent": "1-2 ชั่วโมง",
    "suitable_for": ["ครอบครัว", "นักท่องเที่ยวทั่วไป", "ผู้สนใจศิลปะ"],
    "avg_price_per_person": 250,
    "type": "ที่ท่องเที่ยว"
  },
  {
    "name": "คุ้มขันโตก",
    "location": "สุเทพ",
    "address": "ถนนทางขึ้นดอยสุเทพ, ตำบลสุเทพ, อำเภอเมืองเชียงใหม่, จังหวัดเชียงใหม่",
    "city": "เมืองเชียงใหม่",
    "province": "เชียงใหม่",
    "latitude": 18.8031,
    "longitude": 98.9528,
    "activities": ["รับประทานอาหารพื้นเมือง", "ชมการแสดงวัฒนธรรมล้านนา"],
    "avg_time_spent": "2-3 ชั่วโมง",
    "suitable_for": ["นักท่องเที่ยวทั่วไป", "ผู้สนใจวัฒนธรรม", "ครอบครัว"],
    "avg_price_per_person": 300,
    "type": "ที่ท่องเที่ยว"
  },
  {
    "name": "ไนท์บาซาร์เชียงใหม่",
    "location": "ช้างคลาน",
    "address": "ถนนช้างคลาน, ตำบลช้างคลาน, อำเภอเมืองเชียงใหม่, จังหวัดเชียงใหม่",
    "city": "เมืองเชียงใหม่",
    "province": "เชียงใหม่",
    "latitude": 18.7861,
    "longitude": 98.9931,
    "activities": ["ช้อปปิ้งของฝาก", "ชิมอาหารพื้นเมือง", "เดินเล่นยามค่ำคืน"],
    "avg_time_spent": "2-3 ชั่วโมง",
    "suitable_for": ["นักท่องเที่ยวทั่วไป", "นักช้อปปิ้ง", "ผู้สนใจวัฒนธรรม"],
    "avg_price_per_person": 150,
    "type": "ที่ท่องเที่ยว"
  },
  {
    "name": "วัดพระธาตุดอยสุเทพ",
    "location": "สุเทพ",
    "address": "ตำบลสุเทพ, อำเภอเมืองเชียงใหม่, จังหวัดเชียงใหม่",
    "city": "เมืองเชียงใหม่",
    "province": "เชียงใหม่",
    "latitude": 18.7883,
    "longitude": 98.9795,
    "activities": ["สักการะพระบรมสารีริกธาตุ", "ชมวิวเมืองเชียงใหม่", "เดินขึ้นบันไดนาค"],
    "avg_time_spent": "2-3 ชั่วโมง",
    "suitable_for": ["นักท่องเที่ยวทั่วไป", "ผู้สนใจวัฒนธรรม", "ผู้แสวงบุญ"],
    "avg_price_per_person": 0,
    "type": "ที่ท่องเที่ยว"
  },
  {
    "name": "ย่านวัดเกต",
    "location": "วัดเกต",
    "address": "ตำบลวัดเกต, อำเภอเมืองเชียงใหม่, จังหวัดเชียงใหม่",
    "city": "เมืองเชียงใหม่",
    "province": "เชียงใหม่",
    "latitude": 18.7850,
    "longitude": 98.9930,
    "activities": ["เยี่ยมชมวัดเกตการาม", "ชิมอาหารท้องถิ่น", "ถ่ายภาพ"],
    "avg_time_spent": "2-3 ชั่วโมง",
    "suitable_for": ["นักท่องเที่ยวทั่วไป", "ผู้สนใจวัฒนธรรม", "นักถ่ายภาพ"],
    "avg_price_per_person": 100,
    "type": "ที่ท่องเที่ยว"
  },
  {
    "name": "วัดอุโมงค์",
    "location": "สุเทพ",
    "address": "ถนนอุโมงค์, ตำบลสุเทพ, อำเภอเมืองเชียงใหม่, จังหวัดเชียงใหม่",
    "city": "เมืองเชียงใหม่",
    "province": "เชียงใหม่",
    "latitude": 18.8044,
    "longitude": 98.9667,
    "activities": ["สักการะพระพุทธรูป", "เดินชมอุโมงค์", "นั่งสมาธิ"],
    "avg_time_spent": "1-2 ชั่วโมง",
    "suitable_for": ["นักท่องเที่ยวทั่วไป", "ผู้สนใจวัฒนธรรม", "ผู้ปฏิบัติธรรม"],
    "avg_price_per_person": 0,
    "type": "ที่ท่องเที่ยว"
  },
    {
    "name": "สวนบัวสันติธรรม",
    "location": "สันติธรรม",
    "address": "ถนนสันติธรรม ตำบลช้างเผือก อำเภอเมืองเชียงใหม่ จังหวัดเชียงใหม่",
    "city": "เมืองเชียงใหม่",
    "province": "เชียงใหม่",
    "latitude": 18.8135,
    "longitude": 98.9672,
    "activities": ["ชมบัว", "ถ่ายภาพธรรมชาติ", "เดินเล่นในสวน"],
    "avg_time_spent": "1-2 ชั่วโมง",
    "suitable_for": ["ครอบครัว", "นักท่องเที่ยวทั่วไป"],
    "avg_price_per_person": 0,
    "type": "ที่ท่องเที่ยว"
  },
  {
    "name": "พิพิธภัณฑ์พื้นบ้านล้านนา",
    "location": "เมืองเก่า",
    "address": "ตำบลช้างม่อย อำเภอเมืองเชียงใหม่ จังหวัดเชียงใหม่",
    "city": "เมืองเชียงใหม่",
    "province": "เชียงใหม่",
    "latitude": 18.7952,
    "longitude": 98.9834,
    "activities": ["ชมวัฒนธรรมล้านนา", "ชมโบราณวัตถุ", "เรียนรู้ประวัติศาสตร์"],
    "avg_time_spent": "1-2 ชั่วโมง",
    "suitable_for": ["นักท่องเที่ยวทั่วไป", "ผู้สนใจวัฒนธรรม", "นักเรียน นักศึกษา"],
    "avg_price_per_person": 30,
    "type": "ที่ท่องเที่ยว"
  },
  {
    "name": "ถนนนิมมานเหมินท์",
    "location": "นิมมานเหมินท์",
    "address": "ถนนนิมมานเหมินท์ ตำบลสุเทพ อำเภอเมืองเชียงใหม่ จังหวัดเชียงใหม่",
    "city": "เมืองเชียงใหม่",
    "province": "เชียงใหม่",
    "latitude": 18.7951,
    "longitude": 98.9666,
    "activities": ["เดินเล่น", "ช้อปปิ้งร้านกาแฟและร้านอาหาร", "ชมศิลปะ"],
    "avg_time_spent": "2-3 ชั่วโมง",
    "suitable_for": ["วัยรุ่น", "คู่รัก", "นักท่องเที่ยวทั่วไป"],
    "avg_price_per_person": 150,
    "type": "ที่ท่องเที่ยว"
  },
  {
    "name": "ตลาดวโรรส (กาดหลวง)",
    "location": "ช้างคลาน",
    "address": "ถนนช้างคลาน ตำบลช้างคลาน อำเภอเมืองเชียงใหม่ จังหวัดเชียงใหม่",
    "city": "เมืองเชียงใหม่",
    "province": "เชียงใหม่",
    "latitude": 18.7893,
    "longitude": 98.9925,
    "activities": ["ช้อปปิ้งอาหารและของฝาก", "ชิมอาหารพื้นเมือง", "ชมวิถีชีวิตท้องถิ่น"],
    "avg_time_spent": "1-2 ชั่วโมง",
    "suitable_for": ["นักท่องเที่ยวทั่วไป", "นักช้อปปิ้ง"],
    "avg_price_per_person": 100,
    "type": "ที่ท่องเที่ยว"
  },
  {
    "name": "วัดสวนดอก",
    "location": "ช้างคลาน",
    "address": "ถนนสวนดอก ตำบลช้างคลาน อำเภอเมืองเชียงใหม่ จังหวัดเชียงใหม่",
    "city": "เมืองเชียงใหม่",
    "province": "เชียงใหม่",
    "latitude": 18.7830,
    "longitude": 98.9800,
    "activities": ["สักการะพระพุทธรูป", "ชมสถาปัตยกรรมวัด", "เดินชมสวนดอกไม้"],
    "avg_time_spent": "1-2 ชั่วโมง",
    "suitable_for": ["นักท่องเที่ยวทั่วไป", "ผู้สนใจวัฒนธรรม"],
    "avg_price_per_person": 0,
    "type": "ที่ท่องเที่ยว"
  },
  {
    "name": "พิพิธภัณฑ์ศิลปะร่วมสมัย",
    "location": "ช้างคลาน",
    "address": "ถนนช้างคลาน ตำบลช้างคลาน อำเภอเมืองเชียงใหม่ จังหวัดเชียงใหม่",
    "city": "เมืองเชียงใหม่",
    "province": "เชียงใหม่",
    "latitude": 18.7860,
    "longitude": 98.9930,
    "activities": ["ชมผลงานศิลปะร่วมสมัย", "เข้าร่วมกิจกรรมศิลปะ", "ชมการจัดแสดง"],
    "avg_time_spent": "1-2 ชั่วโมง",
    "suitable_for": ["นักท่องเที่ยวทั่วไป", "ผู้สนใจศิลปะ"],
    "avg_price_per_person": 100,
    "type": "ที่ท่องเที่ยว"
  },
  {
    "name": "สวนราชพฤกษ์",
    "location": "สันกำแพง",
    "address": "ตำบลสันกำแพง อำเภอสันกำแพง จังหวัดเชียงใหม่",
    "city": "สันกำแพง",
    "province": "เชียงใหม่",
    "latitude": 18.7800,
    "longitude": 99.0200,
    "activities": ["ชมดอกไม้", "เดินเล่น", "ถ่ายภาพ"],
    "avg_time_spent": "2-3 ชั่วโมง",
    "suitable_for": ["ครอบครัว", "นักท่องเที่ยวทั่วไป"],
    "avg_price_per_person": 50,
    "type": "ที่ท่องเที่ยว"
  },
  {
    "name": "ศูนย์วัฒนธรรมเชียงใหม่",
    "location": "ช้างคลาน",
    "address": "ถนนช้างคลาน ตำบลช้างคลาน อำเภอเมืองเชียงใหม่ จังหวัดเชียงใหม่",
    "city": "เมืองเชียงใหม่",
    "province": "เชียงใหม่",
    "latitude": 18.7870,
    "longitude": 98.9900,
    "activities": ["ชมการแสดงศิลปวัฒนธรรม", "เรียนรู้วัฒนธรรมล้านนา", "เข้าร่วมกิจกรรม"],
    "avg_time_spent": "2-3 ชั่วโมง",
    "suitable_for": ["นักท่องเที่ยวทั่วไป", "ครอบครัว"],
    "avg_price_per_person": 150,
    "type": "ที่ท่องเที่ยว"
  },
  {
    "name": "วัดพระธาตุศรีจอมทองวรวิหาร",
    "location": "เมืองเก่า",
    "address": "ตำบลวัดเกต อำเภอเมืองเชียงใหม่ จังหวัดเชียงใหม่",
    "city": "เมืองเชียงใหม่",
    "province": "เชียงใหม่",
    "latitude": 18.7855,
    "longitude": 98.9920,
    "activities": ["สักการะพระธาตุ", "ชมสถาปัตยกรรม", "ถ่ายภาพ"],
    "avg_time_spent": "1-2 ชั่วโมง",
    "suitable_for": ["ผู้แสวงบุญ", "นักท่องเที่ยวทั่วไป"],
    "avg_price_per_person": 0,
    "type": "ที่ท่องเที่ยว"
  },
  {
    "name": "ศูนย์วิจัยและพัฒนาการเกษตรเชียงใหม่",
    "location": "สันทราย",
    "address": "ตำบลสันทราย อำเภอสันทราย จังหวัดเชียงใหม่",
    "city": "สันทราย",
    "province": "เชียงใหม่",
    "latitude": 18.8600,
    "longitude": 99.0300,
    "activities": ["เรียนรู้เทคโนโลยีการเกษตร", "ชมสวนเกษตร", "กิจกรรมเชิงเกษตร"],
    "avg_time_spent": "2-3 ชั่วโมง",
    "suitable_for": ["นักเรียน", "นักศึกษา", "นักท่องเที่ยวทั่วไป"],
    "avg_price_per_person": 0,
    "type": "ที่ท่องเที่ยว"
  }
]