[
  {
    "name": "ดอยหลวงเชียงดาว",
    "location": "เชียงดาว",
    "address": "ตำบลเมืองคอง, อำเภอเชียงดาว, จังหวัดเชียงใหม่",
    "city": "เชียงดาว",
    "province": "เชียงใหม่",
    "latitude": 19.3033,
    "longitude": 98.9300,
    "activities": ["เดินป่า", "ปีนเขา", "ชมทะเลหมอก", "ถ่ายภาพวิวภูเขา"],
    "avg_time_spent": "2-3 วัน",
    "suitable_for": ["นักเดินป่า", "นักท่องเที่ยวสายผจญภัย"],
    "avg_price_per_person": 0,
    "type": "ที่ท่องเที่ยว"
  },
  {
    "name": "ถ้ำเชียงดาว",
    "location": "เชียงดาว",
    "address": "ตำบลเมืองคอง, อำเภอเชียงดาว, จังหวัดเชียงใหม่",
    "city": "เชียงดาว",
    "province": "เชียงใหม่",
    "latitude": 19.3033,
    "longitude": 98.9300,
    "activities": ["ชมถ้ำ", "ถ่ายภาพหินงอกหินย้อย", "ศึกษาธรรมชาติ"],
    "avg_time_spent": "1-2 ชั่วโมง",
    "suitable_for": ["นักท่องเที่ยวทั่วไป", "ครอบครัว", "นักศึกษาด้านธรณีวิทยา"],
    "avg_price_per_person": 0,
    "type": "ที่ท่องเที่ยว"
  },
  {
    "name": "น้ำตกศรีสังวาลย์",
    "location": "เชียงดาว",
    "address": "ตำบลเมืองนะ, อำเภอเชียงดาว, จังหวัดเชียงใหม่",
    "city": "เชียงดาว",
    "province": "เชียงใหม่",
    "latitude": 19.3033,
    "longitude": 98.9300,
    "activities": ["เล่นน้ำ", "ปิกนิก", "ถ่ายภาพธรรมชาติ"],
    "avg_time_spent": "1-2 ชั่วโมง",
    "suitable_for": ["ครอบครัว", "นักท่องเที่ยวทั่วไป"],
    "avg_price_per_person": 0,
    "type": "ที่ท่องเที่ยว"
  },
  {
    "name": "ดอยค้ำฟ้า",
    "location": "เชียงดาว",
    "address": "ตำบลเมืองนะ, อำเภอเชียงดาว, จังหวัดเชียงใหม่",
    "city": "เชียงดาว",
    "province": "เชียงใหม่",
    "latitude": 19.3033,
    "longitude": 98.9300,
    "activities": ["ชมทะเลหมอก", "กางเต็นท์", "เดินป่า"],
    "avg_time_spent": "1 วัน",
    "suitable_for": ["นักเดินป่า", "นักท่องเที่ยวสายผจญภัย"],
    "avg_price_per_person": 0,
    "type": "ที่ท่องเที่ยว"
  },
  {
    "name": "บ่อน้ำร้อนโป่งอาง",
    "location": "เชียงดาว",
    "address": "ตำบลเมืองนะ, อำเภอเชียงดาว, จังหวัดเชียงใหม่",
    "city": "เชียงดาว",
    "province": "เชียงใหม่",
    "latitude": 19.3033,
    "longitude": 98.9300,
    "activities": ["แช่น้ำร้อน", "กางเต็นท์", "ชมธรรมชาติ"],
    "avg_time_spent": "1-2 ชั่วโมง",
    "suitable_for": ["นักท่องเที่ยวทั่วไป", "ครอบครัว"],
    "avg_price_per_person": 0,
    "type": "ที่ท่องเที่ยว"
  },
  {
    "name": "เมืองคอง",
    "location": "เชียงดาว",
    "address": "ตำบลเมืองคอง, อำเภอเชียงดาว, จังหวัดเชียงใหม่",
    "city": "เชียงดาว",
    "province": "เชียงใหม่",
    "latitude": 19.3033,
    "longitude": 98.9300,
    "activities": ["เยี่ยมชมวิถีชีวิตชุมชน", "ล่องแพ", "ชมธรรมชาติ"],
    "avg_time_spent": "1 วัน",
    "suitable_for": ["นักท่องเที่ยวทั่วไป", "ครอบครัว", "นักท่องเที่ยวเชิงวัฒนธรรม"],
    "avg_price_per_person": 0,
    "type": "ที่ท่องเที่ยว"
  },
  {
    "name": "ตลาดม้งบ้านห้วยลึก",
    "location": "เชียงดาว",
    "address": "ตำบลเมืองคอง, อำเภอเชียงดาว, จังหวัดเชียงใหม่",
    "city": "เชียงดาว",
    "province": "เชียงใหม่",
    "latitude": 19.3033,
    "longitude": 98.9300,
    "activities": ["ช้อปปิ้งสินค้าเกษตร", "ถ่ายภาพวิถีชีวิตชุมชน"],
    "avg_time_spent": "1-2 ชั่วโมง",
    "suitable_for": ["นักท่องเที่ยวทั่วไป", "นักช้อปปิ้ง", "นักท่องเที่ยวเชิงวัฒนธรรม"],
    "avg_price_per_person": 0,
    "type": "ที่ท่องเที่ยว"
  },
  {
    "name": "ศูนย์พัฒนาโครงการหลวงห้วยลึก",
    "location": "เชียงดาว",
    "address": "ตำบลเมืองคอง, อำเภอเชียงดาว, จังหวัดเชียงใหม่",
    "city": "เชียงดาว",
    "province": "เชียงใหม่",
    "latitude": 19.3033,
    "longitude": 98.9300,
    "activities": ["เยี่ยมชมสวนเกษตร", "เรียนรู้การเกษตรแบบยั่งยืน", "ชิมผลิตภัณฑ์ท้องถิ่น"],
    "avg_time_spent": "1-2 ชั่วโมง",
    "suitable_for": ["นักท่องเที่ยวทั่วไป", "นักเรียน", "นักศึกษาด้านเกษตร"],
    "avg_price_per_person": 0,
    "type": "ที่ท่องเที่ยว"
  },
  {
    "name": "อุโมงค์ต้นไม้เชียงดาว",
    "location": "เชียงดาว",
    "address": "ตำบลเมืองคอง, อำเภอเชียงดาว, จังหวัดเชียงใหม่",
    "city": "เชียงดาว",
    "province": "เชียงใหม่",
    "latitude": 19.3033,
    "longitude": 98.9300,
    "activities": ["ถ่ายภาพ", "เดินเล่น", "ชมธรรมชาติ"],
    "avg_time_spent": "30 นาที - 1 ชั่วโมง",
    "suitable_for": ["นักท่องเที่ยวทั่วไป", "นักถ่ายภาพ", "ครอบครัว"],
    "avg_price_per_person": 0,
    "type": "ที่ท่องเที่ยว"
  }
]