[
  {
    "name": "ดอยอ่างขาง",
    "location": "อำเภอฝาง",
    "address": "อำเภอฝาง, เชียงใหม่",
    "city": "ฝาง",
    "province": "เชียงใหม่",
    "latitude": 19.9300,
    "longitude": 99.1300,
    "activities": ["ชมวิวทะเลหมอก", "เดินป่า", "ถ่ายรูปดอกไม้เมืองหนาว", "กางเต็นท์"],
    "avg_time_spent": "4-6 ชั่วโมง",
    "suitable_for": ["นักท่องเที่ยวธรรมชาติ", "ครอบครัว", "คู่รัก"],
    "avg_price_per_person": 0,
    "type": "ที่ท่องเที่ยว"
  },
  {
    "name": "อุทยานแห่งชาติดอยผ้าห่มปก",
    "location": "อำเภอฝาง",
    "address": "อุทยานแห่งชาติดอยผ้าห่มปก, อำเภอฝาง, เชียงใหม่",
    "city": "ฝาง",
    "province": "เชียงใหม่",
    "latitude": 19.9500,
    "longitude": 99.1400,
    "activities": ["เดินป่า", "ชมธรรมชาติ", "ชมทะเลหมอก"],
    "avg_time_spent": "3-5 ชั่วโมง",
    "suitable_for": ["นักเดินป่า", "นักท่องเที่ยวธรรมชาติ"],
    "avg_price_per_person": 50,
    "type": "ที่ท่องเที่ยว"
  },
  {
    "name": "บ่อน้ำพุร้อนฝาง",
    "location": "อำเภอฝาง",
    "address": "บ่อน้ำพุร้อนฝาง, อำเภอฝาง, เชียงใหม่",
    "city": "ฝาง",
    "province": "เชียงใหม่",
    "latitude": 19.9000,
    "longitude": 99.1200,
    "activities": ["แช่น้ำแร่", "อบสมุนไพร", "พักผ่อน"],
    "avg_time_spent": "2-3 ชั่วโมง",
    "suitable_for": ["นักท่องเที่ยวทั่วไป", "ครอบครัว"],
    "avg_price_per_person": 50,
    "type": "ที่ท่องเที่ยว"
  },
  {
    "name": "สถานีเกษตรหลวงอ่างขาง",
    "location": "อำเภอฝาง",
    "address": "สถานีเกษตรหลวงอ่างขาง, อำเภอฝาง, เชียงใหม่",
    "city": "ฝาง",
    "province": "เชียงใหม่",
    "latitude": 19.9320,
    "longitude": 99.1340,
    "activities": ["ชมสวนเกษตร", "ชิมผลไม้", "ถ่ายรูป"],
    "avg_time_spent": "2-3 ชั่วโมง",
    "suitable_for": ["ครอบครัว", "นักท่องเที่ยวทั่วไป"],
    "avg_price_per_person": 50,
    "type": "ที่ท่องเที่ยว"
  },
  {
    "name": "สวน 80 ดอยอ่างขาง",
    "location": "อำเภอฝาง",
    "address": "สวน 80 สถานีเกษตรหลวงอ่างขาง, อำเภอฝาง, เชียงใหม่",
    "city": "ฝาง",
    "province": "เชียงใหม่",
    "latitude": 19.9350,
    "longitude": 99.1300,
    "activities": ["ชมสวนไม้ดอก", "ถ่ายรูป"],
    "avg_time_spent": "1-2 ชั่วโมง",
    "suitable_for": ["นักท่องเที่ยวทั่วไป", "ครอบครัว"],
    "avg_price_per_person": 0,
    "type": "ที่ท่องเที่ยว"
  },
  {
    "name": "จุดชมวิวม่อนสน",
    "location": "อำเภอฝาง",
    "address": "ม่อนสน, อำเภอฝาง, เชียงใหม่",
    "city": "ฝาง",
    "province": "เชียงใหม่",
    "latitude": 19.9400,
    "longitude": 99.1400,
    "activities": ["ชมวิวทะเลหมอก", "ถ่ายรูป"],
    "avg_time_spent": "1-2 ชั่วโมง",
    "suitable_for": ["นักท่องเที่ยวทั่วไป", "คู่รัก"],
    "avg_price_per_person": 0,
    "type": "ที่ท่องเที่ยว"
  },
  {
    "name": "ไร่ชา 2000 ดอยอ่างขาง",
    "location": "อำเภอฝาง",
    "address": "ไร่ชา 2000, ดอยอ่างขาง, อำเภอฝาง, เชียงใหม่",
    "city": "ฝาง",
    "province": "เชียงใหม่",
    "latitude": 19.9335,
    "longitude": 99.1320,
    "activities": ["ชมไร่ชา", "ถ่ายรูป", "ชิมชา"],
    "avg_time_spent": "1-2 ชั่วโมง",
    "suitable_for": ["นักท่องเที่ยวทั่วไป", "ครอบครัว"],
    "avg_price_per_person": 0,
    "type": "ที่ท่องเที่ยว"
  },
  {
    "name": "ลานกางเต็นท์กิ่วลม",
    "location": "อำเภอฝาง",
    "address": "ลานกางเต็นท์กิ่วลม, อำเภอฝาง, เชียงใหม่",
    "city": "ฝาง",
    "province": "เชียงใหม่",
    "latitude": 19.9405,
    "longitude": 99.1350,
    "activities": ["กางเต็นท์", "เดินป่า", "ชมธรรมชาติ"],
    "avg_time_spent": "ข้ามคืน",
    "suitable_for": ["นักเดินป่า", "นักท่องเที่ยวธรรมชาติ"],
    "avg_price_per_person": 0,
    "type": "ที่ท่องเที่ยว"
  },
  {
    "name": "เขื่อนน้ำมาว",
    "location": "อำเภอฝาง",
    "address": "เขื่อนน้ำมาว, อำเภอฝาง, เชียงใหม่",
    "city": "ฝาง",
    "province": "เชียงใหม่",
    "latitude": 19.8850,
    "longitude": 99.1100,
    "activities": ["ชมวิวธรรมชาติ", "ถ่ายรูป", "พักผ่อน"],
    "avg_time_spent": "1-2 ชั่วโมง",
    "suitable_for": ["นักท่องเที่ยวทั่วไป", "ครอบครัว"],
    "avg_price_per_person": 0,
    "type": "ที่ท่องเที่ยว"
  }
]