[
  {
    "name": "อุทยานแห่งชาติดอยอินทนนท์",
    "location": "อำเภอจอมทอง",
    "address": "อำเภอจอมทอง, เชียงใหม่",
    "city": "จอมทอง",
    "province": "เชียงใหม่",
    "latitude": 18.5883,
    "longitude": 98.4870,
    "activities": ["ชมวิวภูเขา", "เดินป่า", "ชมธรรมชาติ", "ถ่ายรูป"],
    "avg_time_spent": "3-5 ชั่วโมง",
    "suitable_for": ["นักท่องเที่ยวทั่วไป", "นักเดินป่า", "ครอบครัว"],
    "avg_price_per_person": 0,
    "type": "ที่ท่องเที่ยว"
  },
  {
    "name": "น้ำตกวชิรธาร",
    "location": "อุทยานแห่งชาติดอยอินทนนท์",
    "address": "อุทยานแห่งชาติดอยอินทนนท์, อำเภอจอมทอง, เชียงใหม่",
    "city": "จอมทอง",
    "province": "เชียงใหม่",
    "latitude": 18.5700,
    "longitude": 98.4810,
    "activities": ["ชมวิว น้ำตก", "ถ่ายรูป", "เดินป่า"],
    "avg_time_spent": "1-2 ชั่วโมง",
    "suitable_for": ["นักท่องเที่ยวทั่วไป", "ครอบครัว", "คู่รัก"],
    "avg_price_per_person": 0,
    "type": "ที่ท่องเที่ยว"
  },
  {
    "name": "กิ่วแม่ปาน",
    "location": "อุทยานแห่งชาติดอยอินทนนท์",
    "address": "อุทยานแห่งชาติดอยอินทนนท์, อำเภอจอมทอง, เชียงใหม่",
    "city": "จอมทอง",
    "province": "เชียงใหม่",
    "latitude": 18.5847,
    "longitude": 98.4804,
    "activities": ["เดินป่า", "ชมธรรมชาติ", "ดูพืชพรรณและสัตว์ป่า"],
    "avg_time_spent": "3-4 ชั่วโมง",
    "suitable_for": ["นักเดินป่า", "นักท่องเที่ยวธรรมชาติ", "ครอบครัว"],
    "avg_price_per_person": 100,
    "type": "ที่ท่องเที่ยว"
  },
  {
    "name": "ตลาดม้งดอยอินทนนท์",
    "location": "ริมทางขาลงดอยอินทนนท์, บ้านหลวง",
    "address": "ตลาดม้งบ้านขุนกลาง กม.31 ถนนจอมทอง-อินทนนท์, ต.บ้านหลวง, อ.จอมทอง, เชียงใหม่",
    "city": "จอมทอง",
    "province": "เชียงใหม่",
    "latitude": 18.5550,
    "longitude": 98.4700,
    "activities": ["ช้อปปิ้งสินค้าพื้นเมือง", "ชิมผลไม้", "ซื้อของฝาก"],
    "avg_time_spent": "1-2 ชั่วโมง",
    "suitable_for": ["นักท่องเที่ยวทั่วไป", "ครอบครัว", "คนชอบช้อปปิ้ง"],
    "avg_price_per_person": 0,
    "type": "ที่ท่องเที่ยว"
  },
  {
    "name": "สถานีเกษตรหลวงอินทนนท์",
    "location": "หมู่บ้านขุนกลาง",
    "address": "202 หมู่ 7 หมู่บ้านขุนกลาง, อำเภอจอมทอง, เชียงใหม่ 50160",
    "city": "จอมทอง",
    "province": "เชียงใหม่",
    "latitude": 18.5558,
    "longitude": 98.4680,
    "activities": ["ชมสวนเกษตร", "ชิมอาหารจากวัตถุดิบสด", "พักโฮมสเตย์", "ชมน้ำตกสิริภูมิ"],
    "avg_time_spent": "2-3 ชั่วโมง",
    "suitable_for": ["ครอบครัว", "นักท่องเที่ยวธรรมชาติ", "ผู้สนใจเกษตร"],
    "avg_price_per_person": 200,
    "type": "ที่ท่องเที่ยว"
  },
  {
    "name": "บ้านแม่กลางหลวง",
    "location": "อำเภอจอมทอง",
    "address": "บ้านแม่กลางหลวง, อำเภอจอมทอง, เชียงใหม่",
    "city": "จอมทอง",
    "province": "เชียงใหม่",
    "latitude": 18.5650,
    "longitude": 98.4700,
    "activities": ["ชมวิถีชีวิตชาวเขา", "เดินป่า", "ชมธรรมชาติ"],
    "avg_time_spent": "2-3 ชั่วโมง",
    "suitable_for": ["นักท่องเที่ยวที่สนใจวัฒนธรรม", "ครอบครัว"],
    "avg_price_per_person": 0,
    "type": "ที่ท่องเที่ยว"
  },
  {
    "name": "วัดพระธาตุศรีจอมทองวรวิหาร",
    "location": "อำเภอจอมทอง",
    "address": "วัดพระธาตุศรีจอมทองวรวิหาร, อำเภอจอมทอง, เชียงใหม่",
    "city": "จอมทอง",
    "province": "เชียงใหม่",
    "latitude": 18.4817,
    "longitude": 98.4333,
    "activities": ["ไหว้พระ", "ชมสถาปัตยกรรม", "ถ่ายรูป"],
    "avg_time_spent": "1 ชั่วโมง",
    "suitable_for": ["นักท่องเที่ยวทั่วไป", "ผู้สนใจศาสนาและวัฒนธรรม"],
    "avg_price_per_person": 0,
    "type": "ที่ท่องเที่ยว"
  },
  {
    "name": "น้ำตกแม่ยะ",
    "location": "อำเภอจอมทอง",
    "address": "น้ำตกแม่ยะ, อำเภอจอมทอง, เชียงใหม่",
    "city": "จอมทอง",
    "province": "เชียงใหม่",
    "latitude": 18.5690,
    "longitude": 98.4805,
    "activities": ["เดินป่า", "ชมน้ำตก", "ถ่ายรูป"],
    "avg_time_spent": "2-3 ชั่วโมง",
    "suitable_for": ["นักท่องเที่ยวธรรมชาติ", "ครอบครัว"],
    "avg_price_per_person": 0,
    "type": "ที่ท่องเที่ยว"
  },
  {
    "name": "เส้นทางศึกษาธรรมชาติอ่างกา",
    "location": "อำเภอจอมทอง",
    "address": "เส้นทางศึกษาธรรมชาติอ่างกา, อำเภอจอมทอง, เชียงใหม่",
    "city": "จอมทอง",
    "province": "เชียงใหม่",
    "latitude": 18.5600,
    "longitude": 98.4750,
    "activities": ["เดินชมธรรมชาติ", "ศึกษาพืชพรรณและสัตว์ป่า"],
    "avg_time_spent": "2-3 ชั่วโมง",
    "suitable_for": ["นักท่องเที่ยวธรรมชาติ", "นักเรียน", "ครอบครัว"],
    "avg_price_per_person": 0,
    "type": "ที่ท่องเที่ยว"
  },
  {
    "name": "พระมหาธาตุนภเมทนีดลและพระมหาธาตุนภพลภูมิสิริ",
    "location": "อำเภอจอมทอง",
    "address": "พระมหาธาตุนภเมทนีดลและพระมหาธาตุนภพลภูมิสิริ, อำเภอจอมทอง, เชียงใหม่",
    "city": "จอมทอง",
    "province": "เชียงใหม่",
    "latitude": 18.5800,
    "longitude": 98.4850,
    "activities": ["ไหว้พระ", "ชมเจดีย์", "ถ่ายรูป"],
    "avg_time_spent": "1-2 ชั่วโมง",
    "suitable_for": ["นักท่องเที่ยวทั่วไป", "ผู้สนใจศาสนาและวัฒนธรรม"],
    "avg_price_per_person": 0,
    "type": "ที่ท่องเที่ยว"
  }
]