[
  {
    "name": "KAO SOI KRA LONG",
    "location": "Chom Thong",
    "address": "Chom Thong District, Chiang Mai",
    "city": "จอมทอง",
    "province": "เชียงใหม่",
    "latitude": 18.589,
    "longitude": 98.485,
    "google_map": "https://www.google.com/maps/search/?api=1&query=18.589,98.485&query_place_id=KAO%20SOI%20KRA%20LONG",
    "menu_recommend": "ข้าวซอยไก่",
    "avg_price_per_person": 60,
    "suitable_for": ["นักท้องถิ่น", "ครอบครัว"],
    "type": "restaurants"
  },
  {
    "name": "Kruafuangfah",
    "location": "Chom Thong",
    "address": "Chom Thong District, Chiang Mai",
    "city": "จอมทอง",
    "province": "เชียงใหม่",
    "latitude": 18.590,
    "longitude": 98.484,
    "google_map": "https://www.google.com/maps/search/?api=1&query=18.590,98.484&query_place_id=Kruafuangfah",
    "menu_recommend": "อาหารเหนือพื้นถิ่น",
    "avg_price_per_person": 100,
    "suitable_for": ["ครอบครัว", "นักท้องถิ่น"],
    "type": "restaurants"
  },
  {
    "name": "Ros Aong Look Chin Yak",
    "location": "Chom Thong",
    "address": "Chom Thong District, Chiang Mai",
    "city": "จอมทอง",
    "province": "เชียงใหม่",
    "latitude": 18.591,
    "longitude": 98.486,
    "google_map": "https://www.google.com/maps/search/?api=1&query=18.591,98.486&query_place_id=Ros%20Aong%20Look%20Chin%20Yak",
    "menu_recommend": "ลูกชิ้นทอด",
    "avg_price_per_person": 50,
    "suitable_for": ["วัยรุ่น", "นักท้องถิ่น"],
    "type": "restaurants"
  },
  {
    "name": "BAAN KAFÉ at Doi Inthanon",
    "location": "Doi Inthanon",
    "address": "Ban Luang 1009 Alley, Ban Luang, Chom Thong",
    "city": "จอมทอง",
    "province": "เชียงใหม่",
    "latitude": 18.586,
    "longitude": 98.488,
    "google_map": "https://www.google.com/maps/search/?api=1&query=18.586,98.488&query_place_id=BAAN%20KAF%C3%89%20at%20Doi%20Inthanon",
    "menu_recommend": "กาแฟร้อน, เค้ก",
    "avg_price_per_person": 120,
    "suitable_for": ["นักท่องเที่ยว", "คู่รัก"],
    "type": "restaurants"
  },
  {
    "name": "Young Folk Bean & Brew",
    "location": "Doi Inthanon",
    "address": "381 Moo 2 Doi Kaeo, Chom Thong",
    "city": "จอมทอง",
    "province": "เชียงใหม่",
    "latitude": 18.583,
    "longitude": 98.492,
    "google_map": "https://www.google.com/maps/search/?api=1&query=18.583,98.492&query_place_id=Young%20Folk%20Bean%20%26%20Brew",
    "menu_recommend": "กาแฟสด, เค้กใบเตยหวาน",
    "avg_price_per_person": 150,
    "suitable_for": ["สายคาเฟ่", "นักถ่ายรูป"],
    "type": "restaurants"
  },
  {
    "name": "Inthanon Restaurant",
    "location": "Doi Inthanon",
    "address": "GGV9+H4V Unnamed Rd, Ban Luang, Chom Thong",
    "city": "จอมทอง",
    "province": "เชียงใหม่",
    "latitude": 18.586,
    "longitude": 98.488,
    "google_map": "https://www.google.com/maps/search/?api=1&query=18.586,98.488&query_place_id=Inthanon%20Restaurant",
    "menu_recommend": "ทราวทสดผัด",
    "avg_price_per_person": 200,
    "suitable_for": ["ครอบครัว", "นักท่องเที่ยว"],
    "type": "restaurants"
  },
  {
    "name": "Mr. Deang's Shop",
    "location": "Ban Luang",
    "address": "Chom Thong District, Chiang Mai",
    "city": "จอมทอง",
    "province": "เชียงใหม่",
    "latitude": 18.587,
    "longitude": 98.487,
    "google_map": "https://www.google.com/maps/search/?api=1&query=18.587,98.487&query_place_id=Mr.%20Deang's%20Shop",
    "menu_recommend": "อาหารพื้นถิ่น",
    "avg_price_per_person": 120,
    "suitable_for": ["ครอบครัว", "นักท้องถิ่น"],
    "type": "restaurants"
  },
  {
    "name": "Baan Khun Klang Power Plant Restaurant",
    "location": "Doi Inthanon",
    "address": "Near power plant, Doi Inthanon",
    "city": "จอมทอง",
    "province": "เชียงใหม่",
    "latitude": 18.585,
    "longitude": 98.489,
    "google_map": "https://www.google.com/maps/search/?api=1&query=18.585,98.489&query_place_id=Baan%20Khun%20Klang%20Power%20Plant%20Restaurant",
    "menu_recommend": "เมนูภูเขา, อาหารไทย",
    "avg_price_per_person": 180,
    "suitable_for": ["นักท่องเที่ยว"],
    "type": "restaurants"
  },
  {
    "name": "Moei Khab Restaurant",
    "location": "Chom Thong",
    "address": "Chom Thong District, Chiang Mai",
    "city": "จอมทอง",
    "province": "เชียงใหม่",
    "latitude": 18.589,
    "longitude": 98.490,
    "google_map": "https://www.google.com/maps/search/?api=1&query=18.589,98.490&query_place_id=Moei%20Khab%20Restaurant",
    "menu_recommend": "อาหารท้องถิ่น",
    "avg_price_per_person": 120,
    "suitable_for": ["ครอบครัว", "นักท้องถิ่น"],
    "type": "restaurants"
  },
  {
    "name": "Pizza Tonmai",
    "location": "Chom Thong",
    "address": "Behind Wat Phra That Sri Chom Thong",
    "city": "จอมทอง",
    "province": "เชียงใหม่",
    "latitude": 18.579,
    "longitude": 98.470,
    "google_map": "https://www.google.com/maps/search/?api=1&query=18.579,98.470&query_place_id=Pizza%20Tonmai",
    "menu_recommend": "พิซซ่าหน้าบางกรอบ",
    "avg_price_per_person": 200,
    "suitable_for": ["วัยรุ่น", "ครอบครัว"],
    "type": "restaurants"
  },
  {
    "name": "Mae Klang Waterfall Stall",
    "location": "Mae Klang Waterfall",
    "address": "Near waterfall, Chom Thong",
    "city": "จอมทอง",
    "province": "เชียงใหม่",
    "latitude": 18.582,
    "longitude": 98.483,
    "google_map": "https://www.google.com/maps/search/?api=1&query=18.582,98.483&query_place_id=Mae%20Klang%20Waterfall%20Stall",
    "menu_recommend": "ไก่ย่าง+ส้มตำ+ข้าวเหนียว",
    "avg_price_per_person": 80,
    "suitable_for": ["นักท่องเที่ยว", "ครอบครัว"],
    "type": "restaurants"
  },
  {
    "name": "Chom Cafe and Restaurant",
    "location": "Chom Thong",
    "address": "Somphot 700 Pi Rd, Chom Thong",
    "city": "จอมทอง",
    "province": "เชียงใหม่",
    "latitude": 18.580,
    "longitude": 98.492,
    "google_map": "https://www.google.com/maps/search/?api=1&query=18.580,98.492&query_place_id=Chom%20Cafe%20and%20Restaurant",
    "menu_recommend": "Salmon dish, fusion cuisine",
    "avg_price_per_person": 350,
    "suitable_for": ["นักท่องเที่ยว", "คู่รัก"],
    "type": "restaurants"
  },
  {
    "name": "Hot Coffee Guest House & Resort (Cafe)",
    "location": "Doi Inthanon",
    "address": "Doi Inthanon area, Chom Thong",
    "city": "จอมทอง",
    "province": "เชียงใหม่",
    "latitude": 18.590,
    "longitude": 98.502,
    "google_map": "https://www.google.com/maps/search/?api=1&query=18.590,98.502&query_place_id=Hot%20Coffee%20Guest%20House",
    "menu_recommend": "กาแฟร้อน, เค้ก",
    "avg_price_per_person": 120,
    "suitable_for": ["นักท่องเที่ยว", "คู่รัก"],
    "type": "restaurants"
  },
  {
    "name": "Baan Rai Nai Fun Organic Garden",
    "location": "Chom Thong",
    "address": "Chom Thong District, Chiang Mai",
    "city": "จอมทอง",
    "province": "เชียงใหม่",
    "latitude": 18.588,
    "longitude": 98.486,
    "google_map": "https://www.google.com/maps/search/?api=1&query=18.588,98.486&query_place_id=Baan%20Rai%20Nai%20Fun%20Organic%20Garden",
    "menu_recommend": "อาหารมังสวิรัติ",
    "avg_price_per_person": 150,
    "suitable_for": ["สายเฮลธ์ตี้", "นักท่องเที่ยว"],
    "type": "restaurants"
  },
  {
    "name": "Sompon Restaurant",
    "location": "Mae Chaem Town",
    "address": "Mae Chaem District, Chiang Mai",
    "city": "จอมทอง",
    "province": "เชียงใหม่",
    "latitude": 18.444,
    "longitude": 98.337,
    "google_map": "https://www.google.com/maps/search/?api=1&query=18.444,98.337&query_place_id=Sompon%20Restaurant",
    "menu_recommend": "อาหารไทยแท้",
    "avg_price_per_person": 200,
    "suitable_for": ["ครอบครัว", "นักชิม"],
    "type": "restaurants"
  },
  {
    "name": "Sikon Restaurant",
    "location": "Mae Chaem Town",
    "address": "Mae Chaem District, Chiang Mai",
    "city": "จอมทอง",
    "province": "เชียงใหม่",
    "latitude": 18.445,
    "longitude": 98.336,
    "google_map": "https://www.google.com/maps/search/?api=1&query=18.445,98.336&query_place_id=Sikon%20Restaurant",
    "menu_recommend": "Steak, salad",
    "avg_price_per_person": 300,
    "suitable_for": ["นักชิม", "ครอบครัว"],
    "type": "restaurants"
  },
  {
    "name": "Mae Win Road Restaurant",
    "location": "Mae Wang District",
    "address": "Mae Wang District, Chiang Mai",
    "city": "จอมทอง",
    "province": "เชียงใหม่",
    "latitude": 18.769,
    "longitude": 98.920,
    "google_map": "https://www.google.com/maps/search/?api=1&query=18.769,98.920&query_place_id=Mae%20Win%20Road%20Restaurant",
    "menu_recommend": "อาหารเหนือ",
    "avg_price_per_person": 180,
    "suitable_for": ["ครอบครัว", "นักท่องเที่ยว"],
    "type": "restaurants"
  },
  {
    "name": "Restaurant am Fluss",
    "location": "Mae Wang District",
    "address": "Mae Wang District, Chiang Mai",
    "city": "จอมทอง",
    "province": "เชียงใหม่",
    "latitude": 18.770,
    "longitude": 98.921,
    "google_map": "https://www.google.com/maps/search/?api=1&query=18.770,98.921&query_place_id=Restaurant%20am%20Fluss",
    "menu_recommend": "Salad, steak",
    "avg_price_per_person": 250,
    "suitable_for": ["คู่รัก", "ครอบครัว"],
    "type": "restaurants"
  },
  {
    "name": "NGEGGEE เง็กกี",
    "location": "Chom Thong",
    "address": "Chom Thong District, Chiang Mai",
    "city": "จอมทอง",
    "province": "เชียงใหม่",
    "latitude": 18.587,
    "longitude": 98.488,
    "google_map": "https://www.google.com/maps/search/?api=1&query=18.587,98.488&query_place_id=NGEGGEE%20%E0%B9%80%E0%B8%87%E0%B9%87%E0%B8%81%E0%B8%81%E0%B8%B5%E0%B8%A2%E0%B9%8C",
    "menu_recommend": "เมนูจีนไทใหญ่",
    "avg_price_per_person": 150,
    "suitable_for": ["ครอบครัว", "ผู้รักอาหารจีน"],
    "type": "restaurants"
  },
  {
    "name": "Espresso Martini CNX",
    "location": "Chom Thong",
    "address": "Chom Thong District, Chiang Mai",
    "city": "จอมทอง",
    "province": "เชียงใหม่",
    "latitude": 18.586,
    "longitude": 98.486,
    "google_map": "https://www.google.com/maps/search/?api=1&query=18.586,98.486&query_place_id=Espresso%20Martini%20CNX",
    "menu_recommend": "ค็อกเทล, เค้ก",
    "avg_price_per_person": 250,
    "suitable_for": ["คู่รัก", "กลุ่มเพื่อน"],
    "type": "restaurants"
  }
]