[
  {
    "name": "The Cave Bar",
    "location": "Ban Tham",
    "address": "273 Ban Tham 3, Chiang Dao District, Chiang Mai 50170",
    "city": "เชียงดาว",
    "province": "เชียงใหม่",
    "latitude": 19.298,
    "longitude": 98.945,
    "google_map": "https://www.google.com/maps/search/?api=1&query=19.298,98.945&query_place_id=The%20Cave%20Bar",
    "menu_recommend": "Craft beer, snacks",
    "avg_price_per_person": 300,
    "suitable_for": ["กลุ่มเพื่อน", "คู่รัก"],
    "type": "restaurants"
  },
  {
    "name": "Chiang Dao Nest 1",
    "location": "Ban Tham",
    "address": "144, 4 Ban Tham, Chiang Dao District, Chiang Mai 50170",
    "city": "เชียงดาว",
    "province": "เชียงใหม่",
    "latitude": 19.299,
    "longitude": 98.946,
    "google_map": "https://www.google.com/maps/search/?api=1&query=19.299,98.946&query_place_id=Chiang%20Dao%20Nest%201",
    "menu_recommend": "Western fusion dishes",
    "avg_price_per_person": 400,
    "suitable_for": ["ครอบครัว", "คู่รัก"],
    "type": "restaurants"
  },
  {
    "name": "Chiang Dao Resto",
    "location": "Mueang Na",
    "address": "525 M.1 Mueang Na, Chiang Dao, Chiang Mai 50170",
    "city": "เชียงดาว",
    "province": "เชียงใหม่",
    "latitude": 19.294,
    "longitude": 98.942,
    "google_map": "https://www.google.com/maps/search/?api=1&query=19.294,98.942&query_place_id=Chiang%20Dao%20Resto",
    "menu_recommend": "Soft shell crab som tum, salmon salad",
    "avg_price_per_person": 250,
    "suitable_for": ["กลุ่มเพื่อน", "ครอบครัว"],
    "type": "restaurants"
  },
  {
    "name": "Jerns Chiangdao",
    "location": "Chiang Dao",
    "address": "55 M.2 Chiang Dao District, Chiang Mai",
    "city": "เชียงดาว",
    "province": "เชียงใหม่",
    "latitude": 19.296,
    "longitude": 98.941,
    "google_map": "https://www.google.com/maps/search/?api=1&query=19.296,98.941&query_place_id=Jerns%20Chiangdao",
    "menu_recommend": "Yunnan noodles",
    "avg_price_per_person": 150,
    "suitable_for": ["ครอบครัว", "ผู้รักอาหารจีน"],
    "type": "restaurants"
  },
  {
    "name": "Microkosmos Craft Beer & Burger Bar",
    "location": "Moo 12",
    "address": "259 Moo 12, Chiang Dao District, Chiang Mai 50170",
    "city": "เชียงดาว",
    "province": "เชียงใหม่",
    "latitude": 19.297,
    "longitude": 98.939,
    "google_map": "https://www.google.com/maps/search/?api=1&query=19.297,98.939&query_place_id=Microkosmos%20Craft%20Beer%20%26%20Burger%20Bar",
    "menu_recommend": "Smash burger & craft beer",
    "avg_price_per_person": 350,
    "suitable_for": ["กลุ่มเพื่อน", "คู่รัก"],
    "type": "restaurants"
  },
  {
    "name": "เสน่ห์ดอยหลวง",
    "location": "Chiang Dao",
    "address": "Chiang Dao District, Chiang Mai 50170",
    "city": "เชียงดาว",
    "province": "เชียงใหม่",
    "latitude": 19.292,
    "longitude": 98.943,
    "google_map": "https://www.google.com/maps/search/?api=1&query=19.292,98.943&query_place_id=%E0%B9%80%E0%B8%AA%E0%B8%99%E0%B9%88%E0%B8%AB%E0%B8%94%E0%B8%AD%E0%B8%A2%E0%B8%A5%E0%B8%A7%E0%B8%87",
    "menu_recommend": "สามชั้นทอดเกลือ, ต้มยำปลาคัง",
    "avg_price_per_person": 120,
    "suitable_for": ["ครอบครัว"],
    "type": "restaurants"
  },
  {
    "name": "ร้านขาหมูเชียงดาว (เจ้าเก่า)",
    "location": "Chiang Dao",
    "address": "Chiang Dao District, Chiang Mai 50170",
    "city": "เชียงดาว",
    "province": "เชียงใหม่",
    "latitude": 19.291,
    "longitude": 98.942,
    "google_map": "https://www.google.com/maps/search/?api=1&query=19.291,98.942&query_place_id=%E0%B8%A3%E0%B9%89%E0%B8%B2%E0%B8%99%E0%B8%82%E0%B8%B2%E0%B8%AB%E0%B8%A1%E0%B8%B9%E0%B9%80%E0%B8%8A%E0%B8%B5%E0%B8%A2%E0%B8%87%E0%B8%94%E0%B8%B2%E0%B8%A7%20(%E0%B9%80%E0%B8%88%E0%B9%89%E0%B8%B2%E0%B9%80%E0%B8%81%E0%B9%88%E0%B8%B2)",
    "menu_recommend": "ขาหมู, คากิ",
    "avg_price_per_person": 100,
    "suitable_for": ["คนท้องถิ่น", "ครอบครัว"],
    "type": "restaurants"
  },
  {
    "name": "พรเพ็ญขาหมูเสวย",
    "location": "Chiang Dao",
    "address": "Chiang Dao District, Chiang Mai 50170",
    "city": "เชียงดาว",
    "province": "เชียงใหม่",
    "latitude": 19.290,
    "longitude": 98.941,
    "google_map": "https://www.google.com/maps/search/?api=1&query=19.290,98.941&query_place_id=%E0%B8%9E%E0%B8%A3%E0%B9%80%E0%B8%9E%E0%B9%88%E0%B8%8D%E0%B8%82%E0%B8%B2%E0%B8%AB%E0%B8%A1%E0%B8%B9%E0%B9%80%E0%B8%AA%E0%B8%A7%E0%B8%A2",
    "menu_recommend": "ข้าวขาหมู, ไข่พะโล้",
    "avg_price_per_person": 100,
    "suitable_for": ["ครอบครัว"],
    "type": "restaurants"
  },
  {
    "name": "Moohao Bistro",
    "location": "Chiang Dao",
    "address": "Chiang Dao District, Chiang Mai",
    "city": "เชียงดาว",
    "province": "เชียงใหม่",
    "latitude": 19.295,
    "longitude": 98.944,
    "google_map": "https://www.google.com/maps/search/?api=1&query=19.295,98.944&query_place_id=Moohao%20Bistro",
    "menu_recommend": "สเต๊ก, ยำวุ้นเส้น",
    "avg_price_per_person": 200,
    "suitable_for": ["กลุ่มเพื่อน"],
    "type": "restaurants"
  },
  {
    "name": "เต-ชา ก๋วยเตี๋ยวไข่ไดโนเสาร์",
    "location": "Chiang Dao",
    "address": "Chiang Dao District, Chiang Mai",
    "city": "เชียงดาว",
    "province": "เชียงใหม่",
    "latitude": 19.293,
    "longitude": 98.945,
    "google_map": "https://www.google.com/maps/search/?api=1&query=19.293,98.945&query_place_id=%E0%B9%80%E0%B8%95-%E0%B8%8A%E0%B8%B2%20%E0%B8%81%E0%B9%88%E0%B8%A7%E0%B8%A2%E0%B9%80%E0%B8%95%E0%B8%B5%E0%B9%88%E0%B8%A2%E0%B8%A7%E0%B9%84%E0%B8%82%E0%B9%88%E0%B9%84%E0%B8%94%E0%B9%82%E0%B8%99%E0%B8%AA%E0%B8%B2%E0%B8%A3%E0%B9%8C",
    "menu_recommend": "บะหมี่ไข่ไดโนเสาร์",
    "avg_price_per_person": 50,
    "suitable_for": ["เด็ก", "ครอบครัว"],
    "type": "restaurants"
  },
  {
    "name": "Villa De View Café",
    "location": "Chiang Dao",
    "address": "Chiang Dao District, Chiang Mai",
    "city": "เชียงดาว",
    "province": "เชียงใหม่",
    "latitude": 19.289,
    "longitude": 98.947,
    "google_map": "https://www.google.com/maps/search/?api=1&query=19.289,98.947&query_place_id=Villa%20De%20View%20Café",
    "menu_recommend": "กาแฟ, เค้ก",
    "avg_price_per_person": 120,
    "suitable_for": ["คู่รัก", "ครอบครัว"],
    "type": "restaurants"
  },
  {
    "name": "กาแฟฮิมน้ำ แก่งปันเต๊า",
    "location": "Maena",
    "address": "Maena, Chiang Dao District, Chiang Mai",
    "city": "เชียงดาว",
    "province": "เชียงใหม่",
    "latitude": 19.287,
    "longitude": 98.946,
    "google_map": "https://www.google.com/maps/search/?api=1&query=19.287,98.946&query_place_id=%E0%B8%81%E0%B8%B2%E0%B9%81%E0%B8%9F%E0%B9%88%E0%B8%AE%E0%B8%B4%E0%B8%A1%E0%B8%99%E0%B9%89%E0%B8%B3",
    "menu_recommend": "กาแฟสด, ขนม",
    "avg_price_per_person": 100,
    "suitable_for": ["นักท่องเที่ยว", "ครอบครัว"],
    "type": "restaurants"
  },
  {
    "name": "หมอกหลวง Mokluang",
    "location": "Chiang Dao",
    "address": "Chiang Dao District, Chiang Mai",
    "city": "เชียงดาว",
    "province": "เชียงใหม่",
    "latitude": 19.285,
    "longitude": 98.948,
    "google_map": "https://www.google.com/maps/search/?api=1&query=19.285,98.948&query_place_id=Mokluang",
    "menu_recommend": "เบเกอรี, เค้ก",
    "avg_price_per_person": 120,
    "suitable_for": ["สายคาเฟ่", "ครอบครัว"],
    "type": "restaurants"
  },
  {
    "name": "ครัวเวียงปันดาว",
    "location": "Chiang Dao",
    "address": "Chiang Dao District, Chiang Mai",
    "city": "เชียงดาว",
    "province": "เชียงใหม่",
    "latitude": 19.286,
    "longitude": 98.949,
    "google_map": "https://www.google.com/maps/search/?api=1&query=19.286,98.949&query_place_id=%E0%B8%84%E0%B8%A3%E0%B8%B1%E0%B8%A7%E0%B9%80%E0%B8%A7%E0%B8%B5%E0%B8%A2%E0%B8%87%E0%B8%9B%E0%B8%B1%E0%B8%99%E0%B8%94%E0%B8%B2%E0%B8%A7",
    "menu_recommend": "อาหารพื้นเมือง",
    "avg_price_per_person": 150,
    "suitable_for": ["ครอบครัว"],
    "type": "restaurants"
  },
  {
    "name": "Chiang Dao Nest 2 Restaurant",
    "location": "Chiang Dao",
    "address": "Chiang Dao District, Chiang Mai",
    "city": "เชียงดาว",
    "province": "เชียงใหม่",
    "latitude": 19.298,
    "longitude": 98.947,
    "google_map": "https://www.google.com/maps/search/?api=1&query=19.298,98.947&query_place_id=Chiang%20Dao%20Nest%202%20Restaurant",
    "menu_recommend": "Thai set menus",
    "avg_price_per_person": 300,
    "suitable_for": ["คู่รัก", "ครอบครัว"],
    "type": "restaurants"
  }
]