[
  {
    "name": "Jay Hua Chinese Noodles and Chinese Buns",
    "location": "Fang Town",
    "address": "W5RX+X3X, 107, Wiang, Fang District, Chiang Mai 50110",
    "city": "ฝาง",
    "province": "เชียงใหม่",
    "latitude": 19.759,
    "longitude": 99.797,
    "google_map": "https://www.google.com/maps/search/?api=1&query=19.759,99.797",
    "menu_recommend": "Mhala chicken, shrimp wontons",
    "avg_price_per_person": 150,
    "suitable_for": ["ครอบครัว", "คนท้องถิ่น"],
    "type": "restaurants"
  },
  {
    "name": "Café de Fang",
    "location": "Fang Town",
    "address": "W5RX+X3X, Wiang, Fang District, Chiang Mai",
    "city": "ฝาง",
    "province": "เชียงใหม่",
    "latitude": 19.759,
    "longitude": 99.798,
    "google_map": "https://www.google.com/maps/search/?api=1&query=19.759,99.798",
    "menu_recommend": "ส้มตำ, ต้มยำ, สเต๊ก",
    "avg_price_per_person": 200,
    "suitable_for": ["นักท่องเที่ยว", "ครอบครัว"],
    "type": "restaurants"
  },
  {
    "name": "Complement Café",
    "location": "Fang outskirts",
    "address": "221 Moo 18, Wiang, Fang District, Chiang Mai",
    "city": "ฝาง",
    "province": "เชียงใหม่",
    "latitude": 19.733,
    "longitude": 99.812,
    "google_map": "https://www.google.com/maps/search/?api=1&query=19.733,99.812",
    "menu_recommend": "กาแฟ, เค้ก",
    "avg_price_per_person": 120,
    "suitable_for": ["คู่รัก", "คาเฟ่เลิฟเวอร์"],
    "type": "restaurants"
  },
  {
    "name": "Ninecool Coffee & Cake",
    "location": "Fang Town",
    "address": "Opposite Parichat Khao Soi, Fang District, Chiang Mai",
    "city": "ฝาง",
    "province": "เชียงใหม่",
    "latitude": 19.760,
    "longitude": 99.798,
    "google_map": "https://www.google.com/maps/search/?api=1&query=19.760,99.798",
    "menu_recommend": "กาแฟ, เค้กชาเขียว",
    "avg_price_per_person": 100,
    "suitable_for": ["นักท่องเที่ยว", "ครอบครัว"],
    "type": "restaurants"
  },
  {
    "name": "Bullfrog Coffee Roaster",
    "location": "Fang Town",
    "address": "Fang Town, Chiang Mai",
    "city": "ฝาง",
    "province": "เชียงใหม่",
    "latitude": 19.758,
    "longitude": 99.796,
    "google_map": "https://www.google.com/maps/search/?api=1&query=19.758,99.796",
    "menu_recommend": "กาแฟพิเศษ, เบเกอรี่",
    "avg_price_per_person": 130,
    "suitable_for": ["สายคาเฟ่", "เด็กวัยรุ่น"],
    "type": "restaurants"
  },
  {
    "name": "ถิงถิงโภชนา (Ting Ting Phochana)",
    "location": "Doi Angkhang, Fang",
    "address": "In front of Angkhang Royal Agricultural Station, Fang District",
    "city": "ฝาง",
    "province": "เชียงใหม่",
    "latitude": 19.883,
    "longitude": 99.041,
    "google_map": "https://www.google.com/maps/search/?api=1&query=19.883,99.041",
    "menu_recommend": "Yunnan hotpot, pork leg buns",
    "avg_price_per_person": 250,
    "suitable_for": ["นักชิมจีนยูนนาน"],
    "type": "restaurants"
  },
  {
    "name": "Khao Tom Ratchaburi Restaurant",
    "location": "Fang Town",
    "address": "16/16 M.4 Wiang, Fang District, Chiang Mai 50110",
    "city": "ฝาง",
    "province": "เชียงใหม่",
    "latitude": 19.760,
    "longitude": 99.797,
    "google_map": "https://www.google.com/maps/search/?api=1&query=19.760,99.797",
    "menu_recommend": "ข้าวต้ม, ต้มยำ",
    "avg_price_per_person": 80,
    "suitable_for": ["คนท้องถิ่น"],
    "type": "restaurants"
  },
  {
    "name": "GREAT VIWE FANG",
    "location": "Fang Town",
    "address": "444 Moo 4 Wiang, Fang District, Chiang Mai 50110",
    "city": "ฝาง",
    "province": "เชียงใหม่",
    "latitude": 19.761,
    "longitude": 99.798,
    "google_map": "https://www.google.com/maps/search/?api=1&query=19.761,99.798",
    "menu_recommend": "ข้าวผัดทะเล, เบียร์คราฟท์",
    "avg_price_per_person": 200,
    "suitable_for": ["ครอบครัว", "คู่รัก"],
    "type": "restaurants"
  },
  {
    "name": "Ladda Cafe'",
    "location": "Fang Town",
    "address": "Nantraram Soi 4, Wiang, Fang District, Chiang Mai 50110",
    "city": "ฝาง",
    "province": "เชียงใหม่",
    "latitude": 19.760,
    "longitude": 99.799,
    "google_map": "https://www.google.com/maps/search/?api=1&query=19.760,99.799",
    "menu_recommend": "สลัดงา, สมูทตี้โยเกิร์ต",
    "avg_price_per_person": 150,
    "suitable_for": ["สายสุขภาพ", "ครอบครัว"],
    "type": "restaurants"
  },
  {
    "name": "สถานีเกษตรอ่างขาง Restaurant",
    "location": "Angkhang",
    "address": "Royal Agricultural Station 2, Fang District, Chiang Mai",
    "city": "ฝาง",
    "province": "เชียงใหม่",
    "latitude": 19.935,
    "longitude": 99.045,
    "google_map": "https://www.google.com/maps/search/?api=1&query=19.935,99.045",
    "menu_recommend": "อาหารเหนือ, ผักปลอดสาร",
    "avg_price_per_person": 200,
    "suitable_for": ["นักท่องเที่ยว", "ครอบครัว"],
    "type": "restaurants"
  },
  {
    "name": "Thida Cuisine",
    "location": "Fang Town",
    "address": "Wiang, Fang District, Chiang Mai",
    "city": "ฝาง",
    "province": "เชียงใหม่",
    "latitude": 19.759,
    "longitude": 99.797,
    "google_map": "https://www.google.com/maps/search/?api=1&query=19.759,99.797",
    "menu_recommend": "อาหารไทยแท้",
    "avg_price_per_person": 180,
    "suitable_for": ["ครอบครัว", "ผู้สูงอายุ"],
    "type": "restaurants"
  },
  {
    "name": "ร้านเจ๊แดงสุกี้",
    "location": "Fang Town",
    "address": "Wiang, Fang District, Chiang Mai",
    "city": "ฝาง",
    "province": "เชียงใหม่",
    "latitude": 19.759,
    "longitude": 99.798,
    "google_map": "https://www.google.com/maps/search/?api=1&query=19.759,99.798",
    "menu_recommend": "สุกี้จีนยูนนาน",
    "avg_price_per_person": 250,
    "suitable_for": ["ครอบครัว", "นักท่องเที่ยวจีน"],
    "type": "restaurants"
  },
  {
    "name": "Maxx Beef Maxx Bite",
    "location": "Fang Town",
    "address": "Wiang, Fang District, Chiang Mai",
    "city": "ฝาง",
    "province": "เชียงใหม่",
    "latitude": 19.760,
    "longitude": 99.797,
    "google_map": "https://www.google.com/maps/search/?api=1&query=19.760,99.797",
    "menu_recommend": "สเต๊ก, สลัดคลีน",
    "avg_price_per_person": 300,
    "suitable_for": ["วัยรุ่น", "คู่รัก"],
    "type": "restaurants"
  },
  {
    "name": "บ้านดินเล่าจาง",
    "location": "Fang Town",
    "address": "Wiang, Fang District, Chiang Mai",
    "city": "ฝาง",
    "province": "เชียงใหม่",
    "latitude": 19.760,
    "longitude": 99.798,
    "google_map": "https://www.google.com/maps/search/?api=1&query=19.760,99.798",
    "menu_recommend": "หม้อไฟ, อาหารจีน",
    "avg_price_per_person": 220,
    "suitable_for": ["ครอบครัว", "กลุ่มเพื่อน"],
    "type": "restaurants"
  },
  {
    "name": "Tamora Cafe",
    "location": "Fang Town",
    "address": "Wiang, Fang District, Chiang Mai",
    "city": "ฝาง",
    "province": "เชียงใหม่",
    "latitude": 19.760,
    "longitude": 99.797,
    "google_map": "https://www.google.com/maps/search/?api=1&query=19.760,99.797",
    "menu_recommend": "กาแฟ, น้ำผลไม้",
    "avg_price_per_person": 100,
    "suitable_for": ["นักท่องเที่ยว", "สายหวาน"],
    "type": "restaurants"
  },
  {
    "name": "Miso Japanese Cuisine",
    "location": "Fang Town",
    "address": "Wiang, Fang District, Chiang Mai",
    "city": "ฝาง",
    "province": "เชียงใหม่",
    "latitude": 19.759,
    "longitude": 99.797,
    "google_map": "https://www.google.com/maps/search/?api=1&query=19.759,99.797",
    "menu_recommend": "ซูชิ, ราเมง",
    "avg_price_per_person": 350,
    "suitable_for": ["ครอบครัว", "คู่รัก"],
    "type": "restaurants"
  },
  {
    "name": "Fang Food Thai",
    "location": "Fang Town",
    "address": "623 Moo 2, Wiang, Fang District, Chiang Mai 50110",
    "city": "ฝาง",
    "province": "เชียงใหม่",
    "latitude": 19.759,
    "longitude": 99.797,
    "google_map": "https://www.google.com/maps/search/?api=1&query=19.759,99.797",
    "menu_recommend": "อาหารไทยฟิวชัน",
    "avg_price_per_person": 200,
    "suitable_for": ["นักชิม", "วัยรุ่น"],
    "type": "restaurants"
  },
  {
    "name": "Khaomao Khaofang Restaurant",
    "location": "Fang Town",
    "address": "Wiang, Fang District, Chiang Mai",
    "city": "ฝาง",
    "province": "เชียงใหม่",
    "latitude": 19.759,
    "longitude": 99.797,
    "google_map": "https://www.google.com/maps/search/?api=1&query=19.759,99.797",
    "menu_recommend": "ข้าวยำสมุนไพร, ส้มตำ",
    "avg_price_per_person": 150,
    "suitable_for": ["ครอบครัว", "นักท้องถิ่น"],
    "type": "restaurants"
  }
]