[
  {
    "name": "บ้านม่อนม่วน",
    "location": "แม่ริม",
    "address": "ทางขึ้นม่อนแจ่ม, ตำบลแม่แรม, อำเภอแม่ริม, จังหวัดเชียงใหม่",
    "city": "แม่ริม",
    "province": "เชียงใหม่",
    "latitude": 18.978,
    "longitude": 98.530,
    "google_map": "https://goo.gl/maps/2d5xW7dD6z82",
    "menu_recommend": "คอหมูย่างแม่อุ๊ย, ปีกไก่ทอดน้ำปลา, สลัดผักน้ำฟักทอง",
    "avg_price_per_person": 200,
    "suitable_for": ["ครอบครัว", "นักท่องเที่ยว"],
    "type": "restaurants"
  },
  {
    "name": "โป่งแยงแอ่งดอย",
    "location": "แม่ริม",
    "address": "ตำบลโป่งแยง, อำเภอแม่ริม, จังหวัดเชียงใหม่",
    "city": "แม่ริม",
    "province": "เชียงใหม่",
    "latitude": 19.000,
    "longitude": 98.600,
    "google_map": "https://goo.gl/maps/3e8xW8dD7z92",
    "menu_recommend": "หมูแดดเดียว, ต้มฝักแม้ว, ยำแฮมรมควัน",
    "avg_price_per_person": 250,
    "suitable_for": ["นักท่องเที่ยว", "ครอบครัว"],
    "type": "restaurants"
  },
  {
    "name": "ริมธาร นั่งเล่น",
    "location": "แม่ริม",
    "address": "ตำบลแม่แรม, อำเภอแม่ริม, จังหวัดเชียงใหม่",
    "city": "แม่ริม",
    "province": "เชียงใหม่",
    "latitude": 18.980,
    "longitude": 98.540,
    "google_map": "https://goo.gl/maps/4f9xX9dD8z92",
    "menu_recommend": "ปลาทอดกระเทียม, ไส้กรอกอีสาน, หมูสามชั้นทอดจิ้มแจ่ว",
    "avg_price_per_person": 150,
    "suitable_for": ["ครอบครัว", "นักท่องเที่ยว"],
    "type": "restaurants"
  },
  {
    "name": "Chic 39",
    "location": "แม่ริม",
    "address": "ตำบลแม่แรม, อำเภอแม่ริม, จังหวัดเชียงใหม่",
    "city": "แม่ริม",
    "province": "เชียงใหม่",
    "latitude": 18.990,
    "longitude": 98.550,
    "google_map": "https://goo.gl/maps/5g0xY0dD9z92",
    "menu_recommend": "ผักโขมอบชีส, ออร์เดิร์ฟเมือง, ยำองุ่นคุโรบุตะ",
    "avg_price_per_person": 300,
    "suitable_for": ["คู่รัก", "นักท่องเที่ยว"],
    "type": "restaurants"
  },
  {
    "name": "Zombie Cafe' Maerim Chiangmai",
    "location": "แม่ริม",
    "address": "ตำบลแม่แรม, อำเภอแม่ริม, จังหวัดเชียงใหม่",
    "city": "แม่ริม",
    "province": "เชียงใหม่",
    "latitude": 18.970,
    "longitude": 98.520,
    "google_map": "https://goo.gl/maps/6h1xZ1dD0z92",
    "menu_recommend": "ต้มยำกุ้งน้ำข้น, สันคอหมูรมควัน, ผัดฉ่าปลาคัง",
    "avg_price_per_person": 200,
    "suitable_for": ["นักท่องเที่ยว", "ครอบครัว"],
    "type": "restaurants"
  },
  {
    "name": "The Ironwood",
    "location": "แม่ริม",
    "address": "ตำบลแม่แรม, อำเภอแม่ริม, จังหวัดเชียงใหม่",
    "city": "แม่ริม",
    "province": "เชียงใหม่",
    "latitude": 18.960,
    "longitude": 98.510,
    "google_map": "https://goo.gl/maps/7i2xA2dD1z92",
    "menu_recommend": "เต้าหู้พริกเกลือ, ข้าวคลุกกะปิดอกไม้, ข้าวผัดกุ้ง",
    "avg_price_per_person": 250,
    "suitable_for": ["ครอบครัว", "นักท่องเที่ยว"],
    "type": "restaurants"
  },
  {
    "name": "Mai Saigon Restaurant & Bar",
    "location": "แม่ริม",
    "address": "ตำบลแม่แรม, อำเภอแม่ริม, จังหวัดเชียงใหม่",
    "city": "แม่ริม",
    "province": "เชียงใหม่",
    "latitude": 18.950,
    "longitude": 98.500,
    "google_map": "https://goo.gl/maps/8j3xB3dD2z92",
    "menu_recommend": "ยำส้มโอ, แหนมเนือง, สลัดห่อกุ้ง",
    "avg_price_per_person": 300,
    "suitable_for": ["นักท่องเที่ยว", "ครอบครัว"],
    "type": "restaurants"
  },
  {
    "name": "ครัวหลองข้าว",
    "location": "แม่ริม",
    "address": "ตำบลแม่แรม, อำเภอแม่ริม, จังหวัดเชียงใหม่",
    "city": "แม่ริม",
    "province": "เชียงใหม่",
    "latitude": 18.940,
    "longitude": 98.490,
    "google_map": "https://goo.gl/maps/9k4xC4dD3z92",
    "menu_recommend": "น้ำพริกหนุ่ม, ผัดผักเชียงดา, แกงแค",
    "avg_price_per_person": 150,
    "suitable_for": ["ครอบครัว", "นักท่องเที่ยว"],
    "type": "restaurants"
  },
  {
    "name": "ก๋องคำ อาหารพื้นเมืองแม่ริม",
    "location": "แม่ริม",
    "address": "ตำบลแม่แรม, อำเภอแม่ริม, จังหวัดเชียงใหม่",
    "city": "แม่ริม",
    "province": "เชียงใหม่",
    "latitude": 18.930,
    "longitude": 98.480,
    "google_map": "https://goo.gl/maps/0l5xD5dD4z92",
    "menu_recommend": "ตำบะโอ, คั่วแคกบ, แกงผักหวาน",
    "avg_price_per_person": 180,
    "suitable_for": ["นักท่องเที่ยว", "ครอบครัว"],
    "type": "restaurants"
  },
  {
    "name": "N Three Restaurant",
    "location": "แม่ริม",
    "address": "ตำบลแม่แรม, อำเภอแม่ริม, จังหวัดเชียงใหม่",
    "city": "แม่ริม",
    "province": "เชียงใหม่",
    "latitude": 18.920,
    "longitude": 98.470,
    "google_map": "https://goo.gl/maps/1m6xE6dD5z92",
    "menu_recommend": "พิซซ่า, สปาเกตตี, สลัด",
    "avg_price_per_person": 350,
    "suitable_for": ["คู่รัก", "นักท่องเที่ยว"],
    "type": "restaurants"
  },
  {
    "name": "ครัวหลองข้าว",
    "location": "แม่ริม",
    "address": "ตำบลแม่แรม, อำเภอแม่ริม, จังหวัดเชียงใหม่",
    "city": "แม่ริม",
    "province": "เชียงใหม่",
    "latitude": 18.910,
    "longitude": 98.460,
    "google_map": "https://goo.gl/maps/2n7xF7dD6z92",
    "menu_recommend": "แกงฮังเล, ข้าวหมกไก่, ยำสามกรอบ",
    "avg_price_per_person": 200,
    "suitable_for": ["นักท่องเที่ยว", "ครอบครัว"],
    "type": "restaurants"
  },
  {
    "name": "บ้านดินเล่าจาง",
    "location": "แม่ริม",
    "address": "ตำบลแม่แรม, อำเภอแม่ริม, จังหวัดเชียงใหม่",
    "city": "แม่ริม",
    "province": "เชียงใหม่",
    "latitude": 18.900,
    "longitude": 98.450,
    "google_map": "https://goo.gl/maps/3o8xG8dD7z92",
    "menu_recommend": "หม้อไฟ, อาหารจีน",
    "avg_price_per_person": 220,
    "suitable_for": ["ครอบครัว", "กลุ่มเพื่อน"],
    "type": "restaurants"
  },
  {
    "name": "Tamora Cafe",
    "location": "แม่ริม",
    "address": "ตำบลแม่แรม, อำเภอแม่ริม, จังหวัดเชียงใหม่",
    "city": "แม่ริม",
    "province": "เชียงใหม่",
    "latitude": 18.880,
    "longitude": 98.440,
    "google_map": "https://goo.gl/maps/4p9xH9dD8z92",
    "menu_recommend": "กาแฟ, น้ำผลไม้",
    "avg_price_per_person": 100,
    "suitable_for": ["นักท่องเที่ยว", "สายหวาน"],
    "type": "restaurants"
  }
]