[
  {
    "name": "SP Chicken",
    "location": "Old City",
    "address": "9/1 Samlarn Soi 1, Phra Sing, Mueang Chiang Mai 50200",
    "city": "เชียงใหม่",
    "province": "เชียงใหม่",
    "latitude": 18.788,
    "longitude": 98.987,
    "google_map": "https://www.google.com/maps/search/?api=1&query=18.788,98.987&query_place_id=SP%20Chicken",
    "menu_recommend": "Grilled rotisserie chicken",
    "avg_price_per_person": 120,
    "suitable_for": ["ครอบครัว", "กลุ่มเพื่อน"],
    "type": "restaurants"
  },
  {
    "name": "Tong Tem Toh",
    "location": "Nimmanhaemin",
    "address": "11 Nimmanhaemin Rd Lane 13, Suthep, Chiang Mai 50200",
    "city": "เชียงใหม่",
    "province": "เชียงใหม่",
    "latitude": 18.797,
    "longitude": 98.969,
    "google_map": "https://www.google.com/maps/search/?api=1&query=18.797,98.969&query_place_id=Tong%20Tem%20Toh",
    "menu_recommend": "Northern Thai platter, fried pork",
    "avg_price_per_person": 200,
    "suitable_for": ["วัยรุ่น", "คู่รัก"],
    "type": "restaurants"
  },
  {
    "name": "Huen Muan Jai",
    "location": "Chang Phueak",
    "address": "24 Ratchaphuek Alley, Chang Phueak, Chiang Mai 50300",
    "city": "เชียงใหม่",
    "province": "เชียงใหม่",
    "latitude": 18.799,
    "longitude": 98.998,
    "google_map": "https://www.google.com/maps/search/?api=1&query=18.799,98.998&query_place_id=Huen%20Muan%20Jai",
    "menu_recommend": "Chicken & coconut shoot curry (Khao Soi)",
    "avg_price_per_person": 150,
    "suitable_for": ["ครอบครัว", "นักท่องเที่ยว"],
    "type": "restaurants"
  },
  {
    "name": "GINGER FARM kitchen",
    "location": "One Nimman",
    "address": "One Nimman Complex, Nimmanhaemin Rd, Suthep",
    "city": "เชียงใหม่",
    "province": "เชียงใหม่",
    "latitude": 18.796,
    "longitude": 98.968,
    "google_map": "https://www.google.com/maps/search/?api=1&query=18.796,98.968&query_place_id=GINGER%20FARM%20kitchen",
    "menu_recommend": "Pomelo salad, salt-crusted grilled fish",
    "avg_price_per_person": 300,
    "suitable_for": ["วัยรุ่น", "นักชิม"],
    "type": "restaurants"
  },
  {
    "name": "Khao Soi Khun Yai",
    "location": "Old City",
    "address": "Near North Gate, Mueang Chiang Mai",
    "city": "เชียงใหม่",
    "province": "เชียงใหม่",
    "latitude": 18.789,
    "longitude": 98.993,
    "google_map": "https://www.google.com/maps/search/?api=1&query=18.789,98.993&query_place_id=Khao%20Soi%20Khun%20Yai",
    "menu_recommend": "Khao soi gai (chicken curry noodle)",
    "avg_price_per_person": 50,
    "suitable_for": ["คนท้องถิ่น", "เดินทางประหยัด"],
    "type": "restaurants"
  },
  {
    "name": "Khao Soi Mae Sai",
    "location": "Faham",
    "address": "ริมถนนเส้นลำพูน",
    "city": "เชียงใหม่",
    "province": "เชียงใหม่",
    "latitude": 18.778,
    "longitude": 98.969,
    "google_map": "https://www.google.com/maps/search/?api=1&query=18.778,98.969&query_place_id=Khao%20Soi%20Mae%20Sai",
    "menu_recommend": "Khao soi moo (pork)",
    "avg_price_per_person": 50,
    "suitable_for": ["นักชิมท้องถิ่น"],
    "type": "restaurants"
  },
  {
    "name": "Khao Soi Lamduan",
    "location": "North City",
    "address": "Off Route 11, Chiang Mai",
    "city": "เชียงใหม่",
    "province": "เชียงใหม่",
    "latitude": 18.814,
    "longitude": 98.977,
    "google_map": "https://www.google.com/maps/search/?api=1&query=18.814,98.977&query_place_id=Khao%20Soi%20Lamduan",
    "menu_recommend": "Classic khao soi",
    "avg_price_per_person": 60,
    "suitable_for": ["นักกินคอนเทม", "ครอบครัว"],
    "type": "restaurants"
  },
  {
    "name": "Le Coq D'Or",
    "location": "Nong Hoi",
    "address": "Nong Hoi Market area, Chiang Mai",
    "city": "เชียงใหม่",
    "province": "เชียงใหม่",
    "latitude": 18.821,
    "longitude": 98.991,
    "google_map": "https://www.google.com/maps/search/?api=1&query=18.821,98.991&query_place_id=Le%20Coq%20D%27Or",
    "menu_recommend": "French fine-dining set menu",
    "avg_price_per_person": 2400,
    "suitable_for": ["จัดเลี้ยง", "โอกาสพิเศษ"],
    "type": "restaurants"
  },
  {
    "name": "Blackitch Artisan Kitchen",
    "location": "Nimmanhaemin",
    "address": "Near Nimman area",
    "city": "เชียงใหม่",
    "province": "เชียงใหม่",
    "latitude": 18.797,
    "longitude": 98.969,
    "google_map": "https://www.google.com/maps/search/?api=1&query=18.797,98.969&query_place_id=Blackitch%20Artisan%20Kitchen",
    "menu_recommend": "9-course tasting menu",
    "avg_price_per_person": 3000,
    "suitable_for": ["นักชิมชั้นสูง"],
    "type": "restaurants"
  },
  {
    "name": "Baan Landai",
    "location": "Old City",
    "address": "Moo 1, Chiang Mai",
    "city": "เชียงใหม่",
    "province": "เชียงใหม่",
    "latitude": 18.790,
    "longitude": 98.987,
    "google_map": "https://www.google.com/maps/search/?api=1&query=18.790,98.987&query_place_id=Baan%20Landai",
    "menu_recommend": "Traditional Thai dishes",
    "avg_price_per_person": 400,
    "suitable_for": ["ครอบครัว", "นักท่องเที่ยว"],
    "type": "restaurants"
  },
  {
    "name": "Ginger Farm Kitchen",
    "location": "One Nimman",
    "address": "Nimmanhaemin 13",
    "city": "เชียงใหม่",
    "province": "เชียงใหม่",
    "latitude": 18.796,
    "longitude": 98.968,
    "google_map": "https://www.google.com/maps/search/?api=1&query=18.796,98.968&query_place_id=Ginger%20Farm%20Kitchen",
    "menu_recommend": "Pomelo salad, grilled pork neck",
    "avg_price_per_person": 300,
    "suitable_for": ["กลุ่มเพื่อน", "นักชิม"],
    "type": "restaurants"
  },
  {
    "name": "Roti Pa Day",
    "location": "Old City",
    "address": "Between Rachadamnoen Rd",
    "city": "เชียงใหม่",
    "province": "เชียงใหม่",
    "latitude": 18.787,
    "longitude": 98.985,
    "google_map": "https://www.google.com/maps/search/?api=1&query=18.787,98.985&query_place_id=Roti%20Pa%20Day",
    "menu_recommend": "Thai-Roti with sweet toppings",
    "avg_price_per_person": 80,
    "suitable_for": ["สายหวาน"],
    "type": "restaurants"
  },
  {
    "name": "Aunt Aoy Kitchen",
    "location": "Old City",
    "address": "Chiang Mai Old City",
    "city": "เชียงใหม่",
    "province": "เชียงใหม่",
    "latitude": 18.788,
    "longitude": 98.989,
    "google_map": "https://www.google.com/maps/search/?api=1&query=18.788,98.989&query_place_id=Aunt%20Aoy%20Kitchen",
    "menu_recommend": "Homestyle Thai curries",
    "avg_price_per_person": 120,
    "suitable_for": ["ครอบครัว", "ผู้สูงอายุ"],
    "type": "restaurants"
  },
  {
    "name": "Magnolia Café",
    "location": "Nimmanhaemin",
    "address": "Nimman area",
    "city": "เชียงใหม่",
    "province": "เชียงใหม่",
    "latitude": 18.797,
    "longitude": 98.969,
    "google_map": "https://www.google.com/maps/search/?api=1&query=18.797,98.969&query_place_id=Magnolia%20Café",
    "menu_recommend": "Thai fusion dishes",
    "avg_price_per_person": 200,
    "suitable_for": ["คู่รัก", "ครอบครัว"],
    "type": "restaurants"
  },
  {
    "name": "The Redbox",
    "location": "Nimmanhaemin",
    "address": "Nimman area",
    "city": "เชียงใหม่",
    "province": "เชียงใหม่",
    "latitude": 18.797,
    "longitude": 98.969,
    "google_map": "https://www.google.com/maps/search/?api=1&query=18.797,98.969&query_place_id=The%20Redbox",
    "menu_recommend": "Contemporary Thai cuisine",
    "avg_price_per_person": 500,
    "suitable_for": ["คู่รัก", "นักชิม"],
    "type": "restaurants"
  },
  {
    "name": "Rasik",
    "location": "Nimmanhaemin",
    "address": "Nimman",
    "city": "เชียงใหม่",
    "province": "เชียงใหม่",
    "latitude": 18.797,
    "longitude": 98.969,
    "google_map": "https://www.google.com/maps/search/?api=1&query=18.797,98.969&query_place_id=Rasik",
    "menu_recommend": "Modern Thai tasting menu",
    "avg_price_per_person": 1200,
    "suitable_for": ["นักชิม", "โอกาสพิเศษ"],
    "type": "restaurants"
  },
  {
    "name": "Khao Soi Lung Prakit",
    "location": "Old City",
    "address": "Chang Moi",
    "city": "เชียงใหม่",
    "province": "เชียงใหม่",
    "latitude": 18.789,
    "longitude": 98.993,
    "google_map": "https://www.google.com/maps/search/?api=1&query=18.789,98.993&query_place_id=Khao%20Soi%20Lung%20Prakit",
    "menu_recommend": "Khao soi",
    "avg_price_per_person": 50,
    "suitable_for": ["คนท้องถิ่น", "เดินทางประหยัด"],
    "type": "restaurants"
  },
  {
    "name": "Catmosphere Cat Cafe",
    "location": "Huay Kaew",
    "address": "233/5 Huay Kaew Rd, Chiang Mai",
    "city": "เชียงใหม่",
    "province": "เชียงใหม่",
    "latitude": 18.791,
    "longitude": 98.968,
    "google_map": "https://www.google.com/maps/search/?api=1&query=18.791,98.968&query_place_id=Catmosphere%20Cat%20Cafe",
    "menu_recommend": "Coffee & pastries",
    "avg_price_per_person": 150,
    "suitable_for": ["คาเฟ่สายคาแคท", "คู่รัก"],
    "type": "restaurants"
  },
  {
    "name": "9-1 Coffee & Barber",
    "location": "Nimmanhaemin",
    "address": "Soi 13 Nimmanhaemin Rd",
    "city": "เชียงใหม่",
    "province": "เชียงใหม่",
    "latitude": 18.797,
    "longitude": 98.969,
    "google_map": "https://www.google.com/maps/search/?api=1&query=18.797,98.969&query_place_id=9-1%20Coffee%20%26%20Barber",
    "menu_recommend": "Iced tea, khao soi",
    "avg_price_per_person": 120,
    "suitable_for": ["นักท่องเที่ยว", "เดินทางคนเดียว"],
    "type": "restaurants"
  }
]